address,latitude,longitude
"BANNING STREET, SAN DEIGO",32.7462005,-117.2350781
"FRONSAC STREET, SAN DEIGO",32.9189278,-117.0665493
"MT CARMEL DRIVE, SAN DEIGO",32.5608151,-117.044209
"MALCOLM DRIVE, SAN DEIGO",32.7550167,-117.0602706
"TWINFORD COURT, SAN DEIGO",32.924732,-117.12338
"CLAIREMONT  , SAN DEIGO",32.8239594,-117.1848787
"BROOKS HUFFMAN PLAZA  , SAN DEIGO",32.7040778,-117.085423
"SPRUCE RUN DRIVE, SAN DEIGO",32.9298626,-117.0852087
"ALBERT STREET, SAN DEIGO",32.7422395,-117.1501293
"JUMANO AVENUE, SAN DEIGO",32.7965809,-117.196027
"SPARROW STREET, SAN DEIGO",32.7182655,-117.0567211
"EL BLANQUERO PLACE, SAN DEIGO",32.8165284,-117.0500113
"PACIFIC MESA BOULEVARD, SAN DEIGO",32.9017946,-117.1914176
"CASTEJON DRIVE, SAN DEIGO",32.8294801,-117.2490858
"BRANICOLE LANE, SAN DEIGO",32.9407735,-117.1163688
"CALUMET AVENUE, SAN DEIGO",32.8106,-117.269043
"ARDATH LANE, SAN DEIGO",32.8502211,-117.2503212
"VIEWRIDGE COURT, SAN DEIGO",32.8299274,-117.1222722
"BOQUITA DRIVE, SAN DEIGO",32.950294,-117.24971
"GATEWAY CENTRAL  , SAN DEIGO",32.7139606,-117.1133766
"SCRIPPS CREEK DRIVE, SAN DEIGO",32.9296885,-117.0905445
"CALLE PRIMERA ROAD, SAN DEIGO",32.5508365,-117.0454967
"MONTEZUMA AVENUE, SAN DEIGO",32.7446048,-117.1998558
"FENELON STREET, SAN DEIGO",32.7276696,-117.2333345
"ESCUELA  , SAN DEIGO",32.748142,-117.2144
"ENCELIA DRIVE, SAN DEIGO",32.8410162,-117.2586321
"DEVILLE DRIVE, SAN DEIGO",32.7203043,-117.0380019
"THRUSH STREET, SAN DEIGO",32.7083294,-117.0715238
"HONORS DRIVE, SAN DEIGO",32.8453989,-117.2231174
"PARADISE VALLEY  , SAN DEIGO",32.6912103,-117.0399716
"PHYLLIS  , SAN DEIGO",32.7857616,-117.1452128
"WACO STREET, SAN DEIGO",32.8046818,-117.1975273
"EAST HARBOR DRIVE, SAN DEIGO",32.6943449,-117.1416573
"NEW SALEM WAY, SAN DEIGO",32.9153387,-117.1623341
"VIA DELA VALLE  , SAN DEIGO",32.9809511,-117.2373332
"ROBINSON MEWS  , SAN DEIGO",32.7457593,-117.1655537
"TUTHER WAY, SAN DEIGO",32.7035325,-117.0459065
"BOLINAS STREET, SAN DEIGO",32.7467618,-117.2363785
"SEQUOIA STREET, SAN DEIGO",32.7924515,-117.2337589
"DURANT STREET, SAN DEIGO",32.7049087,-117.1201681
"PARK MESA WAY, SAN DEIGO",32.7978184,-117.1693188
"LA JOLLA HERMOSA AVENUE, SAN DEIGO",32.8158097,-117.2696198
"ESCALA DRIVE, SAN DEIGO",33.0428552,-117.0690393
"BRYNWOOD WAY, SAN DEIGO",32.7936651,-117.0588869
"TRIBUNA AVENUE, SAN DEIGO",32.9048982,-117.0876111
"MARLESTA DRIVE, SAN DEIGO",32.8112358,-117.1679991
"TORREY HIGHLAND PARK  , SAN DEIGO",32.9602729,-117.2223984
"AVENIDA NAVIDAD  , SAN DEIGO",32.8644305,-117.2097912
"DEL SUR RIDGE  , SAN DEIGO",33.0179549,-117.1223902
"SABRE HILL DRIVE, SAN DEIGO",32.9522215,-117.1001597
"SALVIA WAY, SAN DEIGO",32.9425723,-117.15791
"RANCH0 PENASQUITOS BOULEVARD, SAN DEIGO",32.9541595,-117.1087481
"SR-905 WB  , SAN DEIGO",-1,-1
"DANICA MAE DRIVE, SAN DEIGO",32.8688117,-117.2209268
"EDNA PLACE, SAN DEIGO",32.7622631,-117.1118452
"PATHOS LANE, SAN DEIGO",32.9439658,-117.140946
"LOUKELTON WAY, SAN DEIGO",32.7858046,-117.0891788
"KESLING STREET, SAN DEIGO",32.8335628,-117.1787487
"MIDWDAY DRIVE, SAN DEIGO",32.7503917,-117.2089341
"PARDEE STREET, SAN DEIGO",32.7079514,-117.1178763
"BALBOA COURT, SAN DEIGO",32.7624974,-117.2509102
"SUNDANCE AVENUE, SAN DEIGO",32.9561643,-117.1381183
"MANOMET STREET, SAN DEIGO",32.699042,-117.0888725
"DOWNWIND DRIVE, SAN DEIGO",32.8667291,-117.2498948
"DEFIANCE WAY, SAN DEIGO",32.7694189,-117.0824295
"ELKHART STREET, SAN DEIGO",32.7318439,-117.0862283
"ANCHORAGE LANE, SAN DEIGO",32.7198507,-117.2291327
"BIONA DRIVE, SAN DEIGO",32.7640699,-117.1042398
"MT HARRIS DRIVE, SAN DEIGO",32.82468,-117.188049
"RAEDEL COURT, SAN DEIGO",32.5791967,-117.0914249
"CENTRALOMA DRIVE, SAN DEIGO",32.7376127,-117.2324493
"GROVELAND DRIVE, SAN DEIGO",32.70768839999999,-117.0820071
"NORSTAD STREET, SAN DEIGO",32.5812533,-117.0537951
"PACIFIC RIDGE DRIVEWAY, SAN DEIGO",32.7710775,-117.1857489
"FLORINDO ROAD, SAN DEIGO",33.0267857,-117.0895116
"RIDGEWOOD DRIVE, SAN DEIGO",32.6839817,-117.0642215
"WHEATSTONE STREET, SAN DEIGO",32.7941308,-117.1806695
"MISSION CENTER COURT, SAN DEIGO",32.7732587,-117.1528326
"CAMTO MARITIMO  , SAN DEIGO",32.8554157,-117.2438857
"ADAMS  , SAN DEIGO",32.7633799,-117.1236636
"VANCOUVER AVENUE, SAN DEIGO",32.7360622,-117.1163996
"CARLSBAD STREET, SAN DEIGO",32.7135836,-117.0200112
"GAGE DRIVE, SAN DEIGO",32.7174138,-117.2416613
"WEST CANYON TERRACE, SAN DEIGO",32.8029954,-117.1190513
"WINDFLOWER WAY, SAN DEIGO",32.7211123,-117.2430175
"SYDNEY LANE, SAN DEIGO",32.919845,-117.1175315
"SUNSET RIDGE DRIVE, SAN DEIGO",32.9184542,-117.0829834
"SEABREEZE FARMS DRIVE, SAN DEIGO",32.9537458,-117.2007792
"MICHAEL STREET, SAN DEIGO",32.743488,-117.0718206
"PLAINVIEW ROAD, SAN DEIGO",32.7738263,-117.1959869
"SWANER STREET, SAN DEIGO",32.71665,-117.0713366
"NIGHTHAWK LANE, SAN DEIGO",33.0153993,-117.1240747
"SABER SPRINGS  , SAN DEIGO",32.9484161,-117.0882341
"IROQUOIS AVENUE, SAN DEIGO",32.7973312,-117.1959096
"STAMEN STREET, SAN DEIGO",32.6967972,-117.0620353
"HILLDALE ROAD, SAN DEIGO",32.77052949999999,-117.1048125
"COMMERCE AVENUE, SAN DEIGO",32.8801217,-117.1678846
"BEAUMONT AVENUE, SAN DEIGO",32.81765,-117.269699
"ASHLEY FALLS DRIVE, SAN DEIGO",32.9524505,-117.2108262
"PONTIAC STREET, SAN DEIGO",32.7685229,-117.0667624
"MIDWAY STREET, SAN DEIGO",32.8129287,-117.2659322
"BROOKLINE STREET, SAN DEIGO",32.7241572,-117.091361
"ROLFE ROAD, SAN DEIGO",32.82583,-117.2007143
"DULUTH AVENUE, SAN DEIGO",32.7007746,-117.0720802
"RACINE ROAD, SAN DEIGO",32.7457771,-117.0537642
"CAMTO RIMINI  , SAN DEIGO",32.9648012,-117.1000788
"BOULDER LAKE AVENUE, SAN DEIGO",32.8004957,-117.0179566
"VALLE AVENUE, SAN DEIGO",32.7001522,-117.1251751
"HYACINTH DRIVE, SAN DEIGO",32.7455045,-117.220603
"FAIRFIELD STREET, SAN DEIGO",32.789696,-117.195007
"IBIS STREET, SAN DEIGO",32.7462048,-117.1731616
"MARIPOSA STREET, SAN DEIGO",32.6895311,-117.0755131
"ACACIA GROVE WAY, SAN DEIGO",32.6923425,-117.1146186
"IBSEN STREET, SAN DEIGO",32.7433775,-117.2155349
"AROSA STREET, SAN DEIGO",32.7651914,-117.0668787
"EUCALYPTUS LANE, SAN DEIGO",32.8617143,-117.2319462
"NORTH TALMADGE DRIVE, SAN DEIGO",32.763915,-117.1002347
"AVERIL ROAD, SAN DEIGO",32.5584402,-117.0542908
"LANCASTER DRIVE, SAN DEIGO",32.7858508,-117.0736969
"MARZO STREET, SAN DEIGO",32.5704767,-117.0513542
"REGENTS PARK RUN  , SAN DEIGO",32.8552341,-117.2176154
"CAMTO RADIANTE  , SAN DEIGO",32.9475411,-117.2043801
"CAMINITO SANTA FE  , SAN DEIGO",32.9813973,-117.2373682
"CARMEL VALLEY  , SAN DEIGO",32.9398273,-117.2029363
"MISSION BAY PARK  , SAN DEIGO",32.7778125,-117.226457
"CARROLL WAY, SAN DEIGO",32.8870715,-117.1589395
"YONGE STREET, SAN DEIGO",32.7382332,-117.2221258
"CANYON CREST DRIVE, SAN DEIGO",32.7761459,-117.0743546
"CAMTO CUADRO  , SAN DEIGO",32.9614405,-117.1154894
"PARKWOOD DRIVE, SAN DEIGO",32.6918849,-117.0315898
"TOOMA STREET, SAN DEIGO",32.6828186,-117.0379235
"MERRITAGE COURT, SAN DEIGO",32.9230418,-117.0502951
"TURTLEBACK ROAD, SAN DEIGO",33.0061207,-117.0863589
"GREWIA STREET, SAN DEIGO",32.6905156,-117.0698735
"LOS SONETO DRIVE, SAN DEIGO",32.7070668,-117.0435959
"MEWALL DRIVE, SAN DEIGO",32.808672,-117.0068135
"DE SOTO STREET, SAN DEIGO",32.8073209,-117.2176662
"MURPHY CANYON  , SAN DEIGO",32.8100348,-117.1045265
"MINUTEMAN STREET, SAN DEIGO",32.8021128,-117.1097902
"HUENNEKENS STREET, SAN DEIGO",32.9018524,-117.1818776
"BAY FRONT COURT, SAN DEIGO",32.7167275,-117.1716043
"ALBORADA DRIVE, SAN DEIGO",33.0434364,-117.083367
"CAMTO DEPORTE  , SAN DEIGO",32.7818475,-117.1088438
"SCARF PLACE, SAN DEIGO",32.8065557,-117.0159647
"SALLISAW COURT, SAN DEIGO",32.8006759,-117.0638047
"NICOLA TESLA COURT, SAN DEIGO",32.5532912,-116.9412741
"RACLINE ROAD, SAN DEIGO",32.7457771,-117.0537642
"YORKTOWN DRIVE, SAN DEIGO",32.8020767,-117.1082407
"AZUSA STREET, SAN DEIGO",32.7667095,-117.1933917
"RAYA WAY, SAN DEIGO",32.8515658,-117.2025603
"SALVATION DRIVEWAY, SAN DEIGO",32.7138756,-117.1580019
"COMPASS WAY, SAN DEIGO",32.5817622,-117.0200298
"ODELL ROAD, SAN DEIGO",32.9090818,-117.1538588
"MIRALANI DRIVE, SAN DEIGO",32.8960864,-117.1406339
"CARMEL KNOLLS DRIVE, SAN DEIGO",32.9495764,-117.2128372
"SHOREHAM PLACE, SAN DEIGO",32.8524575,-117.1853927
"BERNARDO TERRACE, SAN DEIGO",33.02729,-117.0768325
"BRAUN AVENUE, SAN DEIGO",32.7107456,-117.0219325
"OLD TOWN  , SAN DEIGO",32.7542167,-117.1969793
"CONTOUR BOULEVARD, SAN DEIGO",32.7601912,-117.0829498
"SCHILLING AVENUE, SAN DEIGO",32.909929,-117.1687344
"LISTER STREET, SAN DEIGO",32.7855124,-117.202445
"REGATTA LANE, SAN DEIGO",32.5847176,-117.0303361
"MESA COLLEGE WAY, SAN DEIGO",32.80457550000001,-117.1685963
"SPITFIRE ROAD, SAN DEIGO",32.9266771,-117.1159993
"GILMORE  , SAN DEIGO",32.7030925,-117.115736
"PASEO MONTERO  , SAN DEIGO",33.0166967,-117.1403359
"TREENA STREET, SAN DEIGO",32.91115,-117.113851
"SYDNEY COURT, SAN DEIGO",32.8724329,-117.2019782
"BIOLA AVENUE, SAN DEIGO",32.5636839,-117.0815459
"HALLER STREET, SAN DEIGO",32.733516,-117.1142321
" EAST DR  , SAN DEIGO",32.7517099,-117.2087766
"MASH  , SAN DEIGO",32.711697,-117.16042
"TUSCALOOSA STREET, SAN DEIGO",32.7453476,-117.2052852
"ARROYO SORRENTO ROAD, SAN DEIGO",32.9279441,-117.2315106
"WINDWARD STREET, SAN DEIGO",32.6943206,-117.0448701
"CALLE CORTA  , SAN DEIGO",32.8609551,-117.252478
"ARILLO STREET, SAN DEIGO",32.8068868,-117.1647916
"DALEHAVEN PLACE, SAN DEIGO",32.7288827,-117.0895237
"MANNING WAY, SAN DEIGO",32.5820202,-117.0813983
"SAN JUAN ROAD, SAN DEIGO",32.7510884,-117.1907204
"TWINLEAF WAY, SAN DEIGO",32.9233406,-117.0920752
"CAMTO PINTORESCO  , SAN DEIGO",32.7741427,-117.101765
"DODSON STREET, SAN DEIGO",32.7100567,-117.1311273
"OLGA AVENUE, SAN DEIGO",32.8057619,-117.152229
"JUMILLA STREET, SAN DEIGO",32.8344606,-117.0828789
"CLOVIS STREET, SAN DEIGO",32.7507579,-117.2322209
"MERIDIAN AVENUE, SAN DEIGO",32.7433781,-117.0575424
"CAMINO DE LA PLAZA  , SAN DEIGO",32.545274,-117.044909
"CROSBY ROAD, SAN DEIGO",32.6974282,-117.1501759
"STELLAR DRIVE, SAN DEIGO",32.8048205,-117.1251661
"REO PLACE, SAN DEIGO",32.6698755,-117.0601516
"OTAY VALLEY ROAD, SAN DEIGO",32.5778598,-116.9999063
"DIANE COURT, SAN DEIGO",32.842145,-117.1851359
"SCHNEPLE DRIVE, SAN DEIGO",32.9277186,-117.1397903
"UNIVERSITY AVE, SAN DEIGO",32.7511595,-117.1084012
" I-15 NB  , SAN DEIGO",32.7242974,-117.1448537
"PRIMERA  , SAN DEIGO",32.549265,-117.043219
"37TH  , SAN DEIGO",32.7515385,-117.1131259
"FIORE TERRACE, SAN DEIGO",32.8703636,-117.2037072
"FALLS VIEW DRIVE, SAN DEIGO",32.773778,-117.0644353
"WINDOM PEAK WAY, SAN DEIGO",32.9357789,-117.0802593
"ENRIGHT DRIVE, SAN DEIGO",32.5576615,-117.0374772
"NORDSTAD STREET, SAN DEIGO",32.5812533,-117.0537951
"ANDROS COURT, SAN DEIGO",32.75046210000001,-117.072606
"CHEVIOT COURT, SAN DEIGO",32.9057221,-117.1625856
"CAMTO PLAZA CENTRO  , SAN DEIGO",32.8693687,-117.2265006
"GRANGER STREET, SAN DEIGO",32.7310774,-117.2514107
"PREECE STREET, SAN DEIGO",32.793199,-117.1772336
"ARJONS DRIVE, SAN DEIGO",32.8944505,-117.1462611
"TORREY VIEW COURT, SAN DEIGO",32.9218726,-117.2343736
"CAMINO RUIZ  , SAN DEIGO",32.9138604,-117.1438019
"RON WAY, SAN DEIGO",32.7853279,-117.1514235
"LAKE ASHMERE DRIVE, SAN DEIGO",32.7994206,-117.0104672
"EUGENE PLACE, SAN DEIGO",32.7693402,-117.1150054
"CABOT DRIVE, SAN DEIGO",32.8916358,-117.1440919
"HIGA PLACE, SAN DEIGO",33.0112335,-117.057452
"SHCAL CREEK DRIVE, SAN DEIGO",32.9680794,-117.0805629
"PIONEER PLACE, SAN DEIGO",32.7468542,-117.1740634
"MC GUIRE DRIVE, SAN DEIGO",32.9527941,-117.227908
"EXCHANGE PLACE, SAN DEIGO",32.8463588,-117.2688227
"GENESEE AVE, SAN DEIGO",32.8406331,-117.1970729
"OLD GROVE ROAD, SAN DEIGO",32.8989596,-117.1116363
"GENEVA AVENUE, SAN DEIGO",32.7167733,-117.0810455
"COVINA CIRCLE, SAN DEIGO",32.9050327,-117.1364345
"FIEGER STREET, SAN DEIGO",32.7274543,-117.0794917
"CREEKSIDE COURT, SAN DEIGO",32.9202532,-117.0758403
"BACKMAN PLACE, SAN DEIGO",32.7569038,-117.1645736
"CAMTO BALADA  , SAN DEIGO",32.8155761,-117.250504
"VIA ARRILIA  , SAN DEIGO",32.934328,-117.2521014
"DEWSBURY AVENUE, SAN DEIGO",32.9187487,-117.1313745
"HARRIS PLANT ROAD, SAN DEIGO",32.8607776,-117.1218041
"MAURY DRIVE, SAN DEIGO",32.8059042,-117.0125595
"ARCHER STREET, SAN DEIGO",32.8113319,-117.2560909
"PASEO MONTE BATALLA  , SAN DEIGO",33.0523971,-117.0680276
"BERNARDO PLAZA DRIVE, SAN DEIGO",33.0211038,-117.0734153
"VILLAS WAY, SAN DEIGO",32.7837461,-117.1340286
"SUNSET BOULEVARD, SAN DEIGO",32.7512219,-117.1840873
"ELMCREST DRIVE, SAN DEIGO",32.7940921,-117.0458197
"DUNWOOD WAY, SAN DEIGO",32.6960251,-117.0336783
"AGEE STREET, SAN DEIGO",32.8509133,-117.20124
"CAMTO SALADO  , SAN DEIGO",32.77224959999999,-117.182429
"ASHTON STREET, SAN DEIGO",32.780531,-117.2045404
"PARK RUN ROAD, SAN DEIGO",32.95255849999999,-117.13907
"BANFIELD LANE, SAN DEIGO",32.9583189,-117.2323619
"COMPASS POINT S DRIVE, SAN DEIGO",32.9269861,-117.1212406
"ALMAYO COURT, SAN DEIGO",32.8289815,-117.185753
"VIA VILLA LA JOLLA DRIVE, SAN DEIGO",32.8697501,-117.233771
"CAM ABROJO  , SAN DEIGO",-1,-1
"MONTEREY PINE DRIVE, SAN DEIGO",32.5682079,-117.0720613
"MUIRLANDS VISTA WAY, SAN DEIGO",32.8277254,-117.2671462
"SR-78 WB  , SAN DEIGO",-1,-1
"SUMMERSHADE LANE, SAN DEIGO",32.9258711,-117.1238332
"SUCCESS AVENUE, SAN DEIGO",32.8058335,-117.1275844
"ELM  , SAN DEIGO",32.72440280000001,-117.1272578
"GLENROY STREET, SAN DEIGO",32.7958377,-117.0786968
"WILLS CREEK ROAD, SAN DEIGO",32.9289526,-117.0881936
"MIDBLUFF AVENUE, SAN DEIGO",32.9575219,-117.0925417
"SUMMERDALE WAY, SAN DEIGO",32.9186173,-117.14045
"COVINA STREET, SAN DEIGO",32.9040902,-117.1342145
" FENTON PY  , SAN DEIGO",32.7808606,-117.1309936
"TRADE PLACE, SAN DEIGO",32.8923138,-117.1533936
"PENASQUITIOS DRIVE, SAN DEIGO",32.9842479,-117.091721
"CALLE VIVIENDA  , SAN DEIGO",33.0035089,-117.0788624
"HERMOSA WAY, SAN DEIGO",32.7540545,-117.1806951
"LUNADA POINT, SAN DEIGO",33.0482815,-117.0580046
"GLENDORA STREET, SAN DEIGO",32.8020651,-117.2142979
"VISTA SAN JUANICO  , SAN DEIGO",32.5820252,-117.0107336
"LYTON  , SAN DEIGO",32.7440498,-117.2120363
"LONGFORD STREET, SAN DEIGO",32.8335294,-117.182733
"CALLE CALLAN ROAD, SAN DEIGO",32.9047657,-117.2408696
"CAR STREET, SAN DEIGO",32.7177081,-117.0273458
"MT CAROL DRIVE, SAN DEIGO",32.802631,-117.180794
"LIMBERICK AVENUE, SAN DEIGO",32.8352318,-117.1787244
"KORINK AVENUE, SAN DEIGO",32.7972835,-117.1643382
"CAMTO WESTCHESTER  , SAN DEIGO",32.909719,-117.127292
"CARMEL MISSION ROAD, SAN DEIGO",32.94697,-117.2211209
"ACOMA AVENUE, SAN DEIGO",32.8314172,-117.1931319
"VIA SAN MARCO  , SAN DEIGO",32.9677369,-117.0956803
"POE STREET, SAN DEIGO",32.7338494,-117.2283599
"PAXTON DRIVE, SAN DEIGO",32.5745337,-117.0726059
"SPRINGFIELD STREET, SAN DEIGO",32.7248442,-117.0565857
"WINNETT STREET, SAN DEIGO",32.7238604,-117.0620889
"PHANTOM LANE, SAN DEIGO",32.9291555,-117.11757
"SUNSET CLIFFS  , SAN DEIGO",32.726274,-117.2514447
"COUTS STREET, SAN DEIGO",32.7499428,-117.1878921
"VIA DE LA VALLE ROAD, SAN DEIGO",32.9809511,-117.2373332
"TOWSER STREET, SAN DEIGO",32.8023921,-117.1376532
"SEAGROVE STREET, SAN DEIGO",32.9587155,-117.204937
"TRIDLE WAY, SAN DEIGO",32.546667,-117.0528214
"OLD EL CAM REAL  , SAN DEIGO",32.9689687,-117.2313632
"DAHLIA AVENUE, SAN DEIGO",32.5829198,-117.0959438
"WORTHINGTON STREET, SAN DEIGO",32.711031,-117.0209563
"WADE STREET, SAN DEIGO",32.7153153,-117.0247417
"ANGELUCCI STREET, SAN DEIGO",32.8085838,-117.1559491
"COLLEGE  , SAN DEIGO",32.7174477,-117.1526701
"NOBLE  , SAN DEIGO",32.7124267,-117.1575869
"EMDEN ROAD, SAN DEIGO",32.9822449,-117.1323171
"PLAZA ACOSTA  , SAN DEIGO",33.0380225,-117.0520332
"LAKIBA PALMER AVENUE, SAN DEIGO",32.713583,-117.086623
"OLIVER COURT, SAN DEIGO",32.7919711,-117.2550429
"METROPOLITAN DRIVE, SAN DEIGO",32.7772041,-117.1580331
"DONAHUE STREET, SAN DEIGO",32.7654242,-117.1890213
"CAMBERLEY COURT, SAN DEIGO",32.5828543,-117.0312047
"SEWELL AVENUE, SAN DEIGO",32.5757448,-117.0726046
"OLLIE STREET, SAN DEIGO",32.7557917,-117.2223152
"GLENDALE AVENUE, SAN DEIGO",32.71478340000001,-117.1391774
"JADE COURT, SAN DEIGO",32.574373,-117.0194643
"MARCELLENA ROAD, SAN DEIGO",32.7581623,-117.0808463
"GATEWAY CENTER AVENUE, SAN DEIGO",32.7131893,-117.1132414
"LADERA STREET, SAN DEIGO",32.7194087,-117.2554443
"ANGELUS  , SAN DEIGO",32.717296,-117.0433375
"CATANIA STREET, SAN DEIGO",32.703149,-117.1060969
"CAROLWOOD DRIVE, SAN DEIGO",32.6962273,-117.0265111
"CLEO STREET, SAN DEIGO",32.7748086,-117.0584195
"STONEY GATE PLACE, SAN DEIGO",32.9698306,-117.0822594
"MENNONITE POINT, SAN DEIGO",32.971982,-117.127406
"COVINA PLACE, SAN DEIGO",32.904753,-117.1377678
"VIA AZUL  , SAN DEIGO",32.9925933,-117.1613826
"BRISTOL RIDGE TERRACE, SAN DEIGO",33.0158783,-117.145258
"TOSCANA WAY, SAN DEIGO",32.8693477,-117.2025406
"TWINING AVENUE, SAN DEIGO",32.5779861,-117.045426
"GRANITE RIDGE DRIVE, SAN DEIGO",32.8053825,-117.1208046
"ALUMNI PLACE, SAN DEIGO",32.7717577,-117.0564199
"PASEO MONTANOSO  , SAN DEIGO",32.9979597,-117.0889956
"FAUNA DRIVE, SAN DEIGO",32.7394622,-117.0641762
"ANTHRACITE WAY, SAN DEIGO",32.827106,-117.118943
"BALLINGER AVENUE, SAN DEIGO",32.809507,-117.0189375
"CHEYENNE AVENUE, SAN DEIGO",32.8014085,-117.1992645
"HARMARSH STREET, SAN DEIGO",32.802381,-117.1529639
"SOUTH SHORES PARK DRIVEWAY, SAN DEIGO",32.7617994,-117.2169998
"CALICO STREET, SAN DEIGO",32.9081358,-117.1506226
"LARKDALE COURT, SAN DEIGO",32.8014597,-117.1465874
"VIA CASA ALTA  , SAN DEIGO",32.8397492,-117.2518147
"POLARIS DRIVE, SAN DEIGO",32.9258021,-117.1303633
"VILLADERA DRIVE, SAN DEIGO",32.7270687,-117.1978609
"DATE PLACE, SAN DEIGO",32.7234138,-117.0877132
"GUNZAN STREET, SAN DEIGO",32.6847616,-117.0392853
"DUNBROOK ROAD, SAN DEIGO",32.8925826,-117.1518336
"CAMPUS DRIVE, SAN DEIGO",32.7737577,-117.0670317
"HENSLEY STREET, SAN DEIGO",32.7063862,-117.1345594
"JODI STREET, SAN DEIGO",32.7475846,-117.0661438
"MCBURNEY RIDGE LANE, SAN DEIGO",32.9256094,-117.1043514
"SHIELDS STREET, SAN DEIGO",32.8171011,-117.1069059
"TIERRA VISTA CIRCLE, SAN DEIGO",32.9652093,-117.1759613
"GRANITE CREST COURT, SAN DEIGO",32.9362006,-117.1812943
"PAYMOGO COURT, SAN DEIGO",32.9963086,-117.0920586
"LANTANA DRIVE, SAN DEIGO",32.7449137,-117.0902891
"OLD OAK DRIVE, SAN DEIGO",32.704432,-117.0356524
"SYRACUSE AVENUE, SAN DEIGO",32.8469427,-117.2087606
"SDSU TRANSIT CENTER  , SAN DEIGO",32.77332,-117.0705279
"REDWORKS DRIVEWAY, SAN DEIGO",32.7028437,-117.1021756
"PRESIDIO BASEBALL FI  , SAN DEIGO",32.76116,-117.1914696
"OCEAN FRONT STREET, SAN DEIGO",32.7416666,-117.2541378
"STANLEY AVENUE, SAN DEIGO",32.7619448,-117.0617478
"VIA HOLGURA  , SAN DEIGO",32.9490782,-117.226766
"CHINOOK COURT, SAN DEIGO",32.8289279,-117.1957145
"DIZA ROAD, SAN DEIGO",32.5650497,-117.0446493
"SICARD STREET, SAN DEIGO",32.6964434,-117.1380909
"SANDCASTLE LANE, SAN DEIGO",32.7488521,-117.2163194
"MISSION BAY CHANNEL  , SAN DEIGO",32.7683826,-117.239481
"NYE STREET, SAN DEIGO",32.7918301,-117.176306
"MIRAMAR  , SAN DEIGO",32.8767389,-117.1382404
"DICKENS STREET, SAN DEIGO",32.7249801,-117.2318994
"AURORA STREET, SAN DEIGO",32.7100576,-117.0928696
"EAGLE STREET, SAN DEIGO",32.7436462,-117.1696244
"GATTY STREET, SAN DEIGO",32.5858797,-117.0529437
"TORERO WAY, SAN DEIGO",32.7746785,-117.1843757
"CORONADO COURT, SAN DEIGO",32.7645664,-117.2512895
"CALLE MAR DE ARMONIA  , SAN DEIGO",32.9227324,-117.2165993
"LANGMUIR STREET, SAN DEIGO",32.7857072,-117.1751409
"IDLEWILD WAY, SAN DEIGO",32.8282645,-117.2155372
"NORTH TORREY PINES COURT, SAN DEIGO",32.8929243,-117.2419
"ESMERALDAS DRIVE, SAN DEIGO",32.8270112,-117.099813
"ANZA DRIVE, SAN DEIGO",32.7111245,-117.0327093
"ROYAL LYTHAM RW ROW, SAN DEIGO",32.9993637,-117.0718416
"LYNN STREET, SAN DEIGO",32.742263,-117.070204
"ORCUTT AVENUE, SAN DEIGO",32.790684,-117.0904136
"LEGHORN AVENUE, SAN DEIGO",32.7005059,-117.0558526
"CYPRESS CANYON DRIVE, SAN DEIGO",32.9288189,-117.0783622
"WINEWOOD STREET, SAN DEIGO",32.7075688,-117.0426443
"ROCKNE STREET, SAN DEIGO",32.6714271,-117.0494589
"AMES STREET, SAN DEIGO",32.8088059,-117.1633348
"SUNSET POINT PLACE, SAN DEIGO",32.9571615,-117.2134932
"STAINWOOD WAY, SAN DEIGO",32.6987188,-117.0320943
"MARBURY AVENUE, SAN DEIGO",32.9145622,-117.1291125
"SHOOTING STAR COURT, SAN DEIGO",32.5666401,-117.0561757
"SUNSET CROSSING POINT, SAN DEIGO",32.5793885,-117.0185291
"RUSHVILLE STREET, SAN DEIGO",32.8350488,-117.2750154
"HYADES WAY, SAN DEIGO",32.9197298,-117.1293595
"SPRINGBROOK DRIVE, SAN DEIGO",32.9404485,-117.0807679
"NEWKIRK DRIVE, SAN DEIGO",32.8247444,-117.2683588
"OGDEN STREET, SAN DEIGO",32.746567,-117.0818643
"PARADISE HILLS ROAD, SAN DEIGO",32.6936402,-117.0445887
"PARKLAND WAY, SAN DEIGO",32.6913592,-117.0517034
"WESTSIDE DRIVE, SAN DEIGO",32.776536,-117.1524169
"SHADY SANDS ROAD, SAN DEIGO",32.8142851,-117.0506495
"BURGUNDY STREET, SAN DEIGO",32.7918722,-117.0929009
"LAS PALMAS SQUARE, SAN DEIGO",32.8681225,-117.2156969
"HOLDER WAY, SAN DEIGO",32.8223761,-117.1057771
"INDIA  , SAN DEIGO",32.89456,-117.132776
"OCEAN VIEW HILLS  , SAN DEIGO",32.5761395,-117.0146736
"WHINCHAT STREET, SAN DEIGO",32.78238839999999,-117.1613187
"COCHRAN AVENUE, SAN DEIGO",32.5857588,-117.058921
"WEST BROOK AVENUE, SAN DEIGO",32.684894,-117.0271886
"CALLE ABAJO  , SAN DEIGO",32.6643811,-117.0661673
"KENYON STREET, SAN DEIGO",32.7495807,-117.2150327
"RED ROCK DRIVE, SAN DEIGO",32.9043884,-117.0966954
"HEATER COURT, SAN DEIGO",32.9086894,-117.1730554
"APPLE TREE DRIVE, SAN DEIGO",32.8287672,-117.1145494
"YERBA SANTA DRIVE, SAN DEIGO",32.7740373,-117.0907512
"ALDERHILL TERRACE, SAN DEIGO",32.9308716,-117.0788377
"COYOTE BUSH DRIVE, SAN DEIGO",33.0218995,-117.1284777
"CAULFIELD DRIVE, SAN DEIGO",32.5788843,-117.0750566
"GRAYDON ROAD, SAN DEIGO",32.954672,-117.2223782
"SAUCILLO  , SAN DEIGO",32.9971749,-117.0686209
"REVILLO DRIVE, SAN DEIGO",32.7578323,-117.0577514
"DAVENPORT  , SAN DEIGO",32.9711633,-117.1321171
"MERRYFIELD RW ROW, SAN DEIGO",32.9003933,-117.2364178
"ASHFORD PLACE, SAN DEIGO",32.8050315,-117.1607042
"DUCOS PLACE, SAN DEIGO",32.819963,-117.0968843
"NUTE WAY, SAN DEIGO",32.8184412,-117.2183947
"CORVUS PLACE, SAN DEIGO",32.9250085,-117.1343385
"TERRACE PINE DRIVE, SAN DEIGO",32.5682885,-117.0737758
"CENTURION SQUARE, SAN DEIGO",32.8617345,-117.206951
"LA JOLLA SHORES  , SAN DEIGO",32.8589947,-117.2557447
"MAST  , SAN DEIGO",32.7702265,-117.2019424
"VIA FRESA  , SAN DEIGO",32.82697450000001,-117.246582
"ADELPHI PLACE, SAN DEIGO",32.7633095,-117.0826801
"CACTUS RIDGE STREET, SAN DEIGO",32.720594,-117.1149875
"PINE STREET, SAN DEIGO",32.7563012,-117.186221
"CANDELA PLACE, SAN DEIGO",32.9541782,-117.2382437
"DEER RIDGE ROAD, SAN DEIGO",33.0119136,-117.1195746
"BIRCH STREET, SAN DEIGO",32.6879717,-117.1129782
"WESTVALE ROAD, SAN DEIGO",32.9778981,-117.1330592
"LA JOLLA FARMS  , SAN DEIGO",32.8801003,-117.2477134
"ELLINGHAM STREET, SAN DEIGO",32.9652356,-117.1331235
"BRANDYWINE STREET, SAN DEIGO",32.806026,-117.209106
"CAMTO EMPRESA  , SAN DEIGO",32.8202143,-117.2501592
"REDDING ROAD, SAN DEIGO",32.7764293,-117.0821077
"AVNDA ALOZDRA  , SAN DEIGO",33.0404658,-117.0491463
"MISSION CITY PARKWAY, SAN DEIGO",32.7767802,-117.1256987
"HILLSBORO STREET, SAN DEIGO",32.8011773,-117.0744288
"ROCK STREET, SAN DEIGO",32.7513965,-117.0655107
"HARWELL DRIVE, SAN DEIGO",32.8096711,-117.0164769
"VIA FIESTA  , SAN DEIGO",32.9910292,-117.1632839
"SANTA MARIA TERRACE, SAN DEIGO",32.7004974,-117.079723
"MADRIGAL STREET, SAN DEIGO",32.9923122,-117.0893841
"GARY STREET, SAN DEIGO",32.7710577,-117.0603193
"EWING STREET, SAN DEIGO",32.7714757,-117.0615384
"LOTUS STREET, SAN DEIGO",32.7514885,-117.244224
"GRANDVIEW STREET, SAN DEIGO",32.7883461,-117.1925763
"BRANDYWOOD STREET, SAN DEIGO",32.6992735,-117.0509068
"UPA STREET, SAN DEIGO",32.7112785,-117.1550924
"DECORROW  , SAN DEIGO",-1,-1
"CAM COPETE  , SAN DEIGO",32.735316,-117.149046
"LODINGTON PLACE, SAN DEIGO",32.8464231,-117.2643281
"BERNARDO ROAD, SAN DEIGO",33.0244475,-117.0860445
"FRIED AVENUE, SAN DEIGO",32.8501013,-117.2202245
"CHOLLAS PLACE, SAN DEIGO",32.7407036,-117.0832753
"YMCA WAY, SAN DEIGO",32.7048635,-117.0974889
"MT ABBEY AVENUE, SAN DEIGO",32.807228,-117.181297
"PASTERNACK PLACE, SAN DEIGO",32.8009947,-117.134394
"TED WILLIAMS PARKWAY  , SAN DEIGO",32.9280463,-117.2407788
"BRUNNER STREET, SAN DEIGO",32.7691245,-117.1898294
"INDIAN FIG DRIVE, SAN DEIGO",32.7406903,-117.0650312
"LARK STREET, SAN DEIGO",32.7468252,-117.1757716
"SAN PASCUAL STREET, SAN DEIGO",32.6987428,-117.1030925
"BUSH STREET, SAN DEIGO",32.7473391,-117.1727162
"SAN LUIS STREET, SAN DEIGO",32.7141738,-117.1343548
"LEILANI WAY, SAN DEIGO",32.5842703,-117.0688806
"SANTA ROSALIA DRIVE, SAN DEIGO",32.7024021,-117.0840399
"DUCK POND LANE, SAN DEIGO",32.9412151,-117.1800064
"CAPEWOOD LANE, SAN DEIGO",32.9732119,-117.0832999
"BUNNELL STREET, SAN DEIGO",32.6997402,-117.0888724
"BALBOA WAY, SAN DEIGO",32.8179789,-117.1833118
"OVERLOOK  , SAN DEIGO",32.7714385,-117.1992016
"KONA SPRINGS LANE, SAN DEIGO",32.7821406,-117.0855706
"HARVEST RUN DRIVE, SAN DEIGO",32.924942,-117.203392
"EL AMIGO ROAD, SAN DEIGO",32.9505513,-117.2555404
"CARNEGIE PLACE, SAN DEIGO",32.8451213,-117.2179545
"HILGER STREET, SAN DEIGO",32.7198109,-117.053807
"AZUAGA STREET, SAN DEIGO",32.9593669,-117.1089372
"CORDERO ROAD, SAN DEIGO",32.9471249,-117.2542596
"CALIENTE  , SAN DEIGO",32.916208,-117.2367062
"APPIAN DRIVE, SAN DEIGO",32.6778329,-117.0379821
"ROOSEVELT AVENUE, SAN DEIGO",32.790951,-117.2362109
"JENNA COURT, SAN DEIGO",32.7060901,-117.0639997
"CROSS STREET, SAN DEIGO",32.7756995,-117.1911956
"SPRINGHURST DRIVE, SAN DEIGO",32.9421996,-117.0758291
"NEIL  , SAN DEIGO",32.800261,-117.194685
"CARLETON STREET, SAN DEIGO",32.7252555,-117.2338834
"LOS REYES DRIVE, SAN DEIGO",32.7064286,-117.0472036
"SHEPHERD LANE, SAN DEIGO",32.5842266,-117.0428612
"CALLAN ROAD, SAN DEIGO",32.9047657,-117.2408696
"HARJOAN AVENUE, SAN DEIGO",32.793499,-117.1456597
"ARMSTRONG PLACE, SAN DEIGO",32.8042593,-117.1619647
"MOREHOUSE DRIVE, SAN DEIGO",32.8952656,-117.1976361
"AVIATION DRIVE, SAN DEIGO",32.7041671,-117.0530124
"KRAMER STREET, SAN DEIGO",32.7769033,-117.1720236
"ALONDRA DRIVE, SAN DEIGO",33.0180234,-117.056099
"HUTTON AVENUE, SAN DEIGO",32.6724822,-117.0490001
"YAZOO STREET, SAN DEIGO",32.9780691,-117.0952468
"PADRE TRULLIO DRIVE, SAN DEIGO",32.5614929,-117.0446405
"CANOSA AVENUE, SAN DEIGO",32.826099,-117.182587
"CATACINA BOULEVARD, SAN DEIGO",32.7270242,-117.2443204
"CONSOLIDATED WAY, SAN DEIGO",32.878017,-117.166031
"ARENAS STREET, SAN DEIGO",32.8351987,-117.2768439
"MIGUEL VISTA PLACE, SAN DEIGO",32.7019332,-117.0219041
"ELSBERRY STREET, SAN DEIGO",32.6908987,-117.0607011
"KNOLLWOOD ROAD, SAN DEIGO",32.7083497,-117.0307336
"WEST MISSION STREET, SAN DEIGO",32.7644933,-117.2348852
"DRESCHER STREET, SAN DEIGO",32.7795795,-117.1734263
"DEL MAR MESA ROAD, SAN DEIGO",32.9427829,-117.2005357
"LENOX DRIVE, SAN DEIGO",32.7177698,-117.0804468
"LACE PLACE, SAN DEIGO",32.7164864,-117.0877234
"TREAT STREET, SAN DEIGO",32.7143073,-117.1337584
"HUENEME STREET, SAN DEIGO",32.7684013,-117.1858996
"COBB DRIVE, SAN DEIGO",32.8407725,-117.1893947
"KRENZ STREET, SAN DEIGO",32.8024336,-117.1467978
"BESSEMER STREET, SAN DEIGO",32.7190987,-117.2343977
"ALBERTA PLACE, SAN DEIGO",32.748022,-117.1730775
"DANDRIDGE LANE, SAN DEIGO",32.7479979,-117.0692247
"AVENIDA LAMEGA  , SAN DEIGO",33.0038661,-117.0595785
"KIWI STREET, SAN DEIGO",32.7869374,-117.1583201
"SAIL BAY  , SAN DEIGO",32.7885143,-117.2448306
"BARBOUR DRIVE, SAN DEIGO",32.5805204,-117.0732406
"PASEO INTERNACIONAL  , SAN DEIGO",32.5518325,-116.9374368
"PARKER PLACE, SAN DEIGO",32.7922977,-117.2453949
"TERESA DRIVE, SAN DEIGO",32.9251107,-117.1457238
"SHANE PLACE, SAN DEIGO",32.7728351,-117.0596833
"JUST STREET, SAN DEIGO",32.5748948,-117.052043
"THORNWOOD STREET, SAN DEIGO",32.8111037,-117.172661
"UNKNOWN STREET, SAN DEIGO",33.4290888,-116.8332796
"SHOAL SUMMIT DRIVE, SAN DEIGO",32.9668683,-117.0763065
"CAM DEL RIO WEST BOULEVARD, SAN DEIGO",32.7579123,-117.2041145
"VIVIAN STREET, SAN DEIGO",32.7517587,-117.0560272
"WABASKA DRIVE, SAN DEIGO",32.7413188,-117.2327739
"1-5 SB  , SAN DEIGO",32.7740433,-117.2522821
"NORMA DRIVE, SAN DEIGO",32.7616772,-117.0944002
"CRISTOBAL  , SAN DEIGO",32.92759400000001,-117.1623621
"JUDY MCCARTY WAY, SAN DEIGO",-1,-1
"54TH FRONTAGE WEST ROAD, SAN DEIGO",32.7350721,-117.0798505
"HERBERT STREET, SAN DEIGO",32.7448121,-117.1492473
"CASSELBERRY WAY, SAN DEIGO",32.7963741,-117.0481141
"HELIX STREET, SAN DEIGO",32.7324948,-117.0010117
"KENYATTA DRIVE, SAN DEIGO",32.7023249,-117.0688228
"PACIFIC VIEW DRIVE, SAN DEIGO",32.8050223,-117.2605871
"HARBOR  , SAN DEIGO",32.7293076,-117.1997407
"HOMER STREET, SAN DEIGO",32.7430728,-117.2165283
"CAMTO MANRESA  , SAN DEIGO",32.8368172,-117.2544011
"SALK INSTITUTE ROAD, SAN DEIGO",32.886121,-117.2467282
"ABERDEEN STREET, SAN DEIGO",32.83778,-117.18705
"OAKS NORTH DRIVE, SAN DEIGO",33.0332972,-117.0571898
"DIVISION  , SAN DEIGO",32.8094321,-117.1289725
"GENESEE COURT, SAN DEIGO",32.814323,-117.1788203
"FAIRBROOK ROAD, SAN DEIGO",32.9061934,-117.0711473
"MAR REEF COVE, SAN DEIGO",32.5706599,-117.0120654
"PARKBROOK STREET, SAN DEIGO",32.7008886,-117.0221682
"CAMTO EL RINCON  , SAN DEIGO",32.9449002,-117.2368204
"VALENTINO STREET, SAN DEIGO",32.5587923,-117.067178
"MT DURBAN DRIVE, SAN DEIGO",32.817829,-117.1893615
"RUSS BOULEVARD, SAN DEIGO",32.7194075,-117.1383762
"MOUNT ACADIA BOULEVARD, SAN DEIGO",32.8041913,-117.1841264
"DEL HEIGHTS ROAD, SAN DEIGO",32.9562322,-117.2266166
"STATE HIGHWAY 78  , SAN DEIGO",33.0859823,-116.9903166
"OCULTO COURT, SAN DEIGO",33.0249652,-117.0835361
"LUNADA PLACE, SAN DEIGO",33.0494453,-117.0577481
"FRONTAGE ROAD, SAN DEIGO",32.7415323,-117.1860217
"DEERFIELD STREET, SAN DEIGO",32.8130252,-117.0599441
"MERRIMAC AVENUE, SAN DEIGO",32.83610609999999,-117.2086926
"EAOS AVENUE, SAN DEIGO",32.8410054,-117.2741675
"WALNUT AVENUE, SAN DEIGO",32.7414719,-117.1621924
"CARBET PLACE, SAN DEIGO",32.8213797,-117.0966808
"JUMANU AVENUE, SAN DEIGO",32.7965809,-117.196027
"POINT LOMA BOULEVARD, SAN DEIGO",32.7519772,-117.2345834
"MONTCLIFF ROAD, SAN DEIGO",32.6853127,-117.0345712
"DENBY STREET, SAN DEIGO",32.7114735,-117.1028462
"06TH EX STREET, SAN DEIGO",-1,-1
"SAN FELIPE STREET, SAN DEIGO",32.7088926,-117.0271192
"PIPILO STREET, SAN DEIGO",32.9522809,-117.1254284
"CHANNEL WAY, SAN DEIGO",32.756797,-117.2188597
"CLOUDCREST DRIVE, SAN DEIGO",33.009001,-117.085373
"CAMINATA DE LUZ  , SAN DEIGO",32.9694209,-117.0946134
"SAINTSBURY GLEN  , SAN DEIGO",33.0207695,-117.1206757
"WEAVER STREET, SAN DEIGO",32.7218663,-117.0660972
"AMIFORD DRIVE, SAN DEIGO",32.72203289999999,-117.2526852
"GOLDEN HAVEN  , SAN DEIGO",32.8708971,-117.2054653
"TOP GUN STREET, SAN DEIGO",32.9088084,-117.1746521
"DEWEY ROAD, SAN DEIGO",32.7387432,-117.2137676
"PATRIOT STREET, SAN DEIGO",32.800665,-117.1080398
"CONSTITUTION ROAD, SAN DEIGO",32.839584,-117.19323
"MULVANEY DRIVE, SAN DEIGO",32.809404,-117.0096158
"PARADISD VALLEY ROAD, SAN DEIGO",32.6905972,-117.0429154
"OSGOOD WAY, SAN DEIGO",32.8992428,-117.1616868
"MARMIL WAY, SAN DEIGO",32.6661508,-117.0583205
"ONONDAGA AVENUE, SAN DEIGO",32.825439,-117.204773
"MIRAMAR STREET, SAN DEIGO",32.8736072,-117.223939
"COLGATE CIRCLE, SAN DEIGO",32.8232758,-117.2529403
"BAJADA ROAD, SAN DEIGO",33.0277017,-117.0721798
"GASCONADE AVENUE, SAN DEIGO",32.7769935,-117.1934538
"CERRISSA COURT, SAN DEIGO",32.5816601,-117.0891616
"TARENTO DRIVE, SAN DEIGO",32.7197975,-117.2479286
"BERWYN ROAD, SAN DEIGO",32.9109935,-117.1506654
"FENSMUIR STREET, SAN DEIGO",32.8063356,-117.1427056
"ROCKY SHORE ROAD, SAN DEIGO",32.6841835,-117.0620443
"ANNRAE STREET, SAN DEIGO",32.8030545,-117.1535781
"CALLE FORTUNADA  , SAN DEIGO",32.812515,-117.1228968
"SEAGROVE PLACE, SAN DEIGO",32.9611305,-117.2048875
"CAM COSTANERO  , SAN DEIGO",33.4642991,-117.6180443
"BOWDEN AVENUE, SAN DEIGO",32.8265578,-117.1808592
"COPLEY AVENUE, SAN DEIGO",32.7672382,-117.1191471
"JAFFE COURT, SAN DEIGO",32.8017602,-117.0089054
"KEPPLER DRIVE, SAN DEIGO",32.8213113,-117.109122
"SPRUCE  , SAN DEIGO",32.7387076,-117.1617182
"PICO STREET, SAN DEIGO",32.8071455,-117.2232311
"SHOSHONI AVENUE, SAN DEIGO",32.830549,-117.193737
"54TH PLACE, SAN DEIGO",32.7530836,-117.0782881
"PORTO COURT, SAN DEIGO",32.8257434,-117.102404
"CENTER DRIVE, SAN DEIGO",33.1345435,-117.1214211
"ACAMA COURT, SAN DEIGO",32.9266339,-117.1567332
"AVNDA CONSENTIDO  , SAN DEIGO",33.0107191,-117.0689086
"SORIA DRIVE, SAN DEIGO",32.7638919,-117.0677766
"MIMIKA PLACE, SAN DEIGO",32.7957228,-117.1694272
"PROMONTORY STREET, SAN DEIGO",32.788548,-117.238419
"MISSION BEACH BOULEVARD, SAN DEIGO",32.68867,-116.3350505
"ARBORSIDE WAY, SAN DEIGO",32.9253705,-117.0738226
"CAM LINDO  , SAN DEIGO",32.735316,-117.149046
"HAMMERBERG COVE, SAN DEIGO",32.806536,-117.1064876
"ELROSE COURT, SAN DEIGO",32.5754051,-117.0746115
"RENE DRIVE, SAN DEIGO",32.5822256,-117.0462834
"SUSAN PLACE, SAN DEIGO",32.7285411,-117.0849432
"FLOWER AVENUE, SAN DEIGO",32.5759352,-117.0848045
"SEAGLEN WAY, SAN DEIGO",32.5746103,-117.0183747
"EAST LAKE DRIVE, SAN DEIGO",32.7964365,-117.0065881
"ROBINSON PLACE, SAN DEIGO",32.746094,-117.1496805
"CAM DEL MAR  , SAN DEIGO",32.9434897,-117.2606189
"OCEAN VIEW  , SAN DEIGO",32.7012733,-117.1126985
"STILLWELL AVENUE, SAN DEIGO",32.6957592,-117.0710096
"BATISTA STREET, SAN DEIGO",32.8148185,-117.1650429
"PARISH ROAD, SAN DEIGO",33.017029,-117.0587037
"CALEDONIA DRIVE, SAN DEIGO",32.8186458,-117.1575075
"PICKETT STREET, SAN DEIGO",32.756756,-117.2083927
"DUENDA  , SAN DEIGO",33.0350215,-117.0826656
"OSOYOOS PLACE, SAN DEIGO",32.9318073,-117.1347655
"ROOSEVELT ROAD, SAN DEIGO",32.7371841,-117.2141306
"MADELINE STREET, SAN DEIGO",32.7596336,-117.0640062
"ESTHER STREET, SAN DEIGO",32.7617197,-117.0697471
"NESTOR PARK  , SAN DEIGO",32.57217079999999,-117.081247
"ROUS STREET, SAN DEIGO",32.85920490000001,-117.1985194
"VIA DE LA MELODIA  , SAN DEIGO",32.5662501,-117.0493311
"POMERADO  , SAN DEIGO",32.9736692,-117.0625193
"LA CANADA STREET, SAN DEIGO",32.820894,-117.2707175
"FIRST AVENUE, SAN DEIGO",32.7315456,-117.1639412
"MARKET CREEK PLACE, SAN DEIGO",32.7088065,-117.0858381
"TECH WAY, SAN DEIGO",32.8238601,-117.1382386
"VIA LA JOLLA VILLAGE DRIVE, SAN DEIGO",32.8717938,-117.2177712
"PAUL JONES AVENUE, SAN DEIGO",32.8051694,-117.2121825
"GLENBROOK WAY, SAN DEIGO",32.8661463,-117.2421538
"CRYSTAL COVE, SAN DEIGO",32.5775187,-117.0212727
"JUTLAND PLACE, SAN DEIGO",32.8273254,-117.2225963
"19TH  , SAN DEIGO",32.7484207,-117.193728
"DE ANZA ROAD, SAN DEIGO",32.79799819999999,-117.2158445
"KANE STREET, SAN DEIGO",32.7864935,-117.2005343
"KARENSUE AVENUE, SAN DEIGO",32.84889709999999,-117.2005217
"EMERSON STREET, SAN DEIGO",32.7258807,-117.2318922
"ATLAST STREET, SAN DEIGO",32.8077426,-117.1582193
"MAYCREST LANE, SAN DEIGO",32.9167323,-117.1794384
"WILBUR AVENUE, SAN DEIGO",32.8054218,-117.251376
"LEHIGH STREET, SAN DEIGO",32.7745594,-117.2038701
"MICHAELMAS TERRACE, SAN DEIGO",32.7480806,-117.2095224
"EDMONTON AVENUE, SAN DEIGO",32.8567325,-117.2012645
"ROCKFORD DRIVE, SAN DEIGO",32.7688023,-117.0676302
"DELL ANNE PLACE, SAN DEIGO",32.7152074,-117.0232847
"SWEETWATER ROAD, SAN DEIGO",32.6923934,-117.017215
"SUMMERDALE ROAD, SAN DEIGO",32.9180769,-117.1399134
"AVENIDA PLAYA VERACR  , SAN DEIGO",32.8333759,-117.0923713
"HIGHLANDS VILLAGE PLACE, SAN DEIGO",32.9621209,-117.1537194
"EVENING CREEK NORTH DRIVE, SAN DEIGO",32.9612636,-117.0946374
"VIA DE SAN YSIDRO BOULEVARD, SAN DEIGO",32.5514345,-117.0455356
"KLINE STREET, SAN DEIGO",32.8434279,-117.2740733
"FARRAGUT ROAD, SAN DEIGO",32.7330531,-117.2181045
"LAYLA  , SAN DEIGO",32.5722072,-117.0425708
"WELLING WAY, SAN DEIGO",32.7063026,-117.0462062
"DUCHESS STREET, SAN DEIGO",32.74474590000001,-117.0498783
"BERNARDO TRAILS COURT, SAN DEIGO",33.0427263,-117.0595096
"CARTHAGE STREET, SAN DEIGO",32.7927688,-117.0782917
"PINE KNOT BOULEVARD, SAN DEIGO",34.2363885,-116.9116834
"CAM DEL RIO W  , SAN DEIGO",32.7579123,-117.2041145
"SAGEBRUSH ROAD, SAN DEIGO",32.8258021,-117.2422964
"DA VINCI STREET, SAN DEIGO",32.9427758,-117.2173216
"CARDENO DR  DRIVE, SAN DEIGO",32.822121,-117.249023
"YSABEL CREEK ROAD, SAN DEIGO",33.0811201,-116.9894022
"LA SALLE STREET, SAN DEIGO",32.7564363,-117.2196753
"TORQUOISE STREET, SAN DEIGO",32.809277,-117.2562078
"PULITZER PLACE, SAN DEIGO",32.8660438,-117.2169551
"FRIANT STREET, SAN DEIGO",32.9078018,-117.1356571
"POMERADO COURT, SAN DEIGO",33.0226069,-117.0610431
"PIEDRA STREET, SAN DEIGO",32.57119,-117.0541994
"NAUGATUCK AVENUE, SAN DEIGO",32.8343369,-117.2189208
"AUBURNDALE STREET, SAN DEIGO",32.8122244,-117.1714251
"RIDEABOUT COURT, SAN DEIGO",32.9502074,-117.1387576
"BRIGHTON COURT, SAN DEIGO",32.7630152,-117.2510574
"EL CAMINO DE TEATRO  , SAN DEIGO",32.8293963,-117.2591302
"MENTONE STREET, SAN DEIGO",32.7509312,-117.2320668
"DATSUN STREET, SAN DEIGO",32.5719332,-116.9991747
"PALERMO DRIVE, SAN DEIGO",32.7421986,-117.2279482
"12TH AVENUE, SAN DEIGO",32.710452,-117.1538566
"10TH  , SAN DEIGO",32.7151918,-117.1555991
"BUENA VISTA STREET, SAN DEIGO",32.783014,-117.2384904
"GOLDEN RIDGE ROAD, SAN DEIGO",32.8337079,-116.9404643
"MIRA MESA  , SAN DEIGO",32.9184763,-117.1382404
"BERNARDO DRIVE, SAN DEIGO",33.0323653,-117.0810413
"FOURTH AVENUE, SAN DEIGO",32.7319108,-117.1612149
"LOS ANGELES PLACE, SAN DEIGO",32.7007467,-117.0783738
"CASTLETON DRIVE, SAN DEIGO",32.8253974,-117.1734902
"CAMTO BLYTHEFIELD  , SAN DEIGO",32.8343377,-117.2438473
"SAMANTHA COURT, SAN DEIGO",32.9635625,-117.1284664
"TELESIS COURT, SAN DEIGO",32.9027604,-117.208517
"FOX AVENUE, SAN DEIGO",32.8169618,-117.20312
"CONSTRUCTION COURT, SAN DEIGO",32.8836817,-117.167597
"HOPKINS STREET, SAN DEIGO",32.6712212,-117.0665857
"GILBERT DRIVE, SAN DEIGO",32.7593944,-117.0773984
"EAST OVERLOOK DRIVE, SAN DEIGO",32.7543544,-117.0696383
"CYPRESS POINT ROAD, SAN DEIGO",32.7905228,-117.0568151
"ROSELAWN AVENUE, SAN DEIGO",32.7452656,-117.0931757
"CROWNHILL ROAD, SAN DEIGO",32.8117645,-117.2334013
"CAMTO DOHA  , SAN DEIGO",32.9011383,-117.1056966
"15TH  , SAN DEIGO",32.7098467,-117.1503737
"OLD GLOBE WAY, SAN DEIGO",32.7324832,-117.1502612
"MAGUIRE ROAD, SAN DEIGO",32.5496052,-117.0539003
"71ST STREET, SAN DEIGO",32.7125677,-117.0460285
"SUTHERLAND STREET, SAN DEIGO",32.7421843,-117.186031
"MT LA PLATTA DRIVE, SAN DEIGO",32.827469,-117.188133
"MARIAN WAY, SAN DEIGO",32.771048,-117.1928152
"ILEXEY AVENUE, SAN DEIGO",32.573068,-117.0444786
"DUBOIS DRIVE, SAN DEIGO",32.836353,-117.198273
"RICHARD STREET, SAN DEIGO",32.7737786,-117.0544447
"RANDALL STREET, SAN DEIGO",32.810646,-117.2258
"AINSLEY ROAD, SAN DEIGO",32.7819856,-117.1506164
"CAMTO PASADERO  , SAN DEIGO",33.0497141,-117.0686603
"NEWSOME DRIVE, SAN DEIGO",32.7471947,-117.0598802
"HOLLY STREET, SAN DEIGO",33.2054065,-117.3703345
"COCONINO  , SAN DEIGO",32.8318609,-117.2064958
"SEABRIDGE LANE, SAN DEIGO",32.9768184,-117.0792335
"CHALON LANE, SAN DEIGO",32.9665377,-117.072992
"PACIFIC HIGHWAY  , SAN DEIGO",32.7418916,-117.1880823
"JOHN JAY HOPKINS DRIVE, SAN DEIGO",32.8887094,-117.2409785
"BLACK HILLS WAY, SAN DEIGO",32.9598963,-117.123876
"PAGE STREET, SAN DEIGO",32.7427003,-117.0654207
"SILKTREE COURT, SAN DEIGO",32.6916424,-117.1176239
"EASTGATE MALL  , SAN DEIGO",32.8806387,-117.2022914
"WYATT PLACE, SAN DEIGO",32.5669326,-117.031398
"SHOOTING STAR DRIVE, SAN DEIGO",32.5671944,-117.055735
"ARTESIAN ROAD, SAN DEIGO",33.0181706,-117.1549754
"PERIQUE STREET, SAN DEIGO",32.746348,-117.0611198
"73RD STREET, SAN DEIGO",32.769535,-117.0404258
"HARBOR ISLAND DRIVE, SAN DEIGO",32.7252635,-117.2009562
"MARILOU ROAD, SAN DEIGO",32.7223185,-117.089096
"JAGROSS COURT, SAN DEIGO",32.9257809,-117.1444794
"MESA RIM ROAD, SAN DEIGO",32.9009251,-117.1772414
"TOPAZ WAY, SAN DEIGO",32.835078,-117.1360329
"SILK  , SAN DEIGO",32.767224,-117.2001568
"STACY AVENUE, SAN DEIGO",32.8097084,-117.1978816
"CAM SAN BERNARDO  , SAN DEIGO",32.735316,-117.149046
"SWORD WAY, SAN DEIGO",32.9625261,-117.2149504
"SEASCAPE DRIVE, SAN DEIGO",32.6745292,-117.0543584
"CLAY AVENUE, SAN DEIGO",32.7032716,-117.1294982
"WINCHESTER STREET, SAN DEIGO",32.6738051,-117.0629651
"CALLE PAVANA  , SAN DEIGO",32.6810755,-117.053945
"SALMON STREET, SAN DEIGO",32.8024766,-117.1063456
"BAYSIDE WALK, SAN DEIGO",32.7828657,-117.2394988
"CLIFFRIDGE AVENUE, SAN DEIGO",32.8640026,-117.2423991
"NORWALK AVENUE, SAN DEIGO",32.8301298,-117.2114502
"NOBLE DRIVE, SAN DEIGO",32.867186,-117.2121012
"CHAPARAJOS COURT, SAN DEIGO",32.8063528,-117.076129
"MONTONGO CIRCLE, SAN DEIGO",32.9180566,-117.1521355
"MUNDA ROAD, SAN DEIGO",32.6850208,-117.0619421
"EARHART STREET, SAN DEIGO",32.800588,-117.1360909
"CAMARENA ROAD, SAN DEIGO",32.9523424,-117.2239169
"PARK ROW, SAN DEIGO",32.71394,-117.168753
"KEARNY VILLA  , SAN DEIGO",32.84487319999999,-117.1270973
"QUINCE DRIVE, SAN DEIGO",32.7366598,-117.1585654
"BROADWAY STREET, SAN DEIGO",32.7158006,-117.14316
"PAVO REAL DRIVE, SAN DEIGO",32.8131414,-117.0801184
"ROYSTON DRIVE, SAN DEIGO",32.5680132,-117.0948043
"LAKE CAYUGA DRIVE, SAN DEIGO",32.7993186,-117.0243728
"THOR STREET, SAN DEIGO",32.6888656,-117.1176474
"OF INDUSTRY  , SAN DEIGO",32.7180094,-117.1680281
"ENCINO AVENUE, SAN DEIGO",32.7876591,-117.1460444
"GEMINI AVENUE, SAN DEIGO",32.9193162,-117.1251136
"CAROL STREET, SAN DEIGO",32.7598597,-117.0676341
"VENICE STREET, SAN DEIGO",32.738556,-117.2396629
"TORREY GARDENS PLACE, SAN DEIGO",32.9627168,-117.1504087
"MANZANARES  , SAN DEIGO",32.7033036,-117.0817995
"CAMINITO CANTIUENA  , SAN DEIGO",33.0510091,-117.0711502
"CANDLELIGHT DRIVE, SAN DEIGO",32.8148025,-117.2585077
"WESTOVER PLACE, SAN DEIGO",32.7247535,-117.086006
"SAN FERNANDO STREET, SAN DEIGO",32.711949,-117.240266
"ELLIOTT STREET, SAN DEIGO",32.7432459,-117.2213533
"PLAZA RIDGE ROAD, SAN DEIGO",32.689501,-117.0558035
"EAST TALMADGE DRIVE, SAN DEIGO",32.7615954,-117.100401
"LUBER STREET, SAN DEIGO",32.7180852,-117.0735125
"LAPIZ DRIVE, SAN DEIGO",32.9218445,-117.1458901
"GOODWIN STREET, SAN DEIGO",32.778196,-117.1767892
"SHORELINE DRIVE, SAN DEIGO",32.8640039,-117.1993803
"KICKAPOO COURT, SAN DEIGO",32.8254026,-117.2120704
"WALL STREET, SAN DEIGO",32.846924,-117.2732468
"OLYMPIC STREET, SAN DEIGO",32.7522128,-117.0696772
"SAN JOSE PLACE, SAN DEIGO",32.78474,-117.2528405
"GOODYEAR STREET, SAN DEIGO",32.694979,-117.1156139
"LARCHWOOD AVENUE, SAN DEIGO",32.8080907,-117.065207
"CESPED DRIVE, SAN DEIGO",32.8143312,-117.0801745
"OF NATIONS  , SAN DEIGO",32.7144789,-117.1618204
"ELROSE DRIVE, SAN DEIGO",32.5741039,-117.0732728
"TALMADGE CANYON ROW, SAN DEIGO",32.7668357,-117.0951314
"SAN JOAQUIN DRIVE, SAN DEIGO",32.8117126,-117.2255268
"LEEWARD ISLE POINT, SAN DEIGO",32.5699857,-117.0128073
"SHAWN AVENUE, SAN DEIGO",32.7945844,-117.1246333
"ROCKFIELD WAY, SAN DEIGO",32.9265871,-117.1252783
"SWAN LAKE DRIVE, SAN DEIGO",32.927802,-117.1022742
"BROOKS HUFFMAN PLAZA, SAN DEIGO",32.7040778,-117.085423
"VIOLA STREET, SAN DEIGO",32.7720136,-117.2008569
"TORREY MEADOWS  , SAN DEIGO",32.9638121,-117.1561
"PITTA STREET, SAN DEIGO",32.7107236,-117.0727588
"ALAMITOS AVENUE, SAN DEIGO",32.5930037,-117.08622
"DAFTER PLACE, SAN DEIGO",32.7281028,-117.0892393
"SUNSET STREET, SAN DEIGO",32.756004,-117.195396
"11TH AV  AVENUE, SAN DEIGO",32.7152044,-117.1547046
"BRINELL STREET, SAN DEIGO",32.8248055,-117.153162
"INNOVATIVE DRIVE, SAN DEIGO",32.5720039,-117.0012647
"SAN PASCUAL ROAD, SAN DEIGO",33.0835201,-117.0316249
"GREENS EAST ROAD, SAN DEIGO",33.0303959,-117.0624127
"RANCHO DEL SOL WAY, SAN DEIGO",32.9639551,-117.1798387
"RUBY STREET, SAN DEIGO",32.7697412,-117.1885034
"TESORO GROVE WAY, SAN DEIGO",32.57392,-117.0812894
"BARRYMORE STREET, SAN DEIGO",32.9729173,-117.1348835
"LOUISIANA DRIVE, SAN DEIGO",32.7521751,-117.1400523
"MIRA FLORES DRIVE, SAN DEIGO",32.7001848,-117.0748887
"HARCOURT DRIVE, SAN DEIGO",32.7922072,-117.1205436
"SHAW STREET, SAN DEIGO",32.6724961,-117.0671444
"MABEL BELL LANE, SAN DEIGO",32.8378982,-117.2748937
"HIGHTREE LANE, SAN DEIGO",32.6941156,-117.0353796
"LOWER RIDGE ROAD, SAN DEIGO",32.9549154,-117.2420275
"DESTY STREET, SAN DEIGO",32.5820091,-117.0770497
"CAM GLORITA  , SAN DEIGO",32.8323037,-117.1578891
"QUESTOR PLACE, SAN DEIGO",32.7873539,-117.1265794
"JARRETT COURT, SAN DEIGO",32.6963295,-117.0905897
"BONNIE COURT, SAN DEIGO",32.7635935,-117.1100519
"GABACHO DRIVE, SAN DEIGO",32.8312564,-117.0992062
"AGUAMIEL ROAD, SAN DEIGO",33.0401186,-117.0820379
"SCHUYLER STREET, SAN DEIGO",32.6787205,-117.062435
"COLTS WAY, SAN DEIGO",32.7519899,-117.0769519
"CAMTO BOLSA  , SAN DEIGO",32.9620913,-117.1158857
"BELLVALE AVENUE, SAN DEIGO",32.8272598,-117.1805791
"MANOS DRIVE, SAN DEIGO",32.6690583,-117.0551641
"ABBE STREET, SAN DEIGO",32.7801787,-117.1676607
"PASEO TEMPORADA  , SAN DEIGO",32.96218930000001,-117.1197926
"MT ALIFAN PLACE, SAN DEIGO",32.8112865,-117.1933002
"SABRE SPRINGS PLACE, SAN DEIGO",32.9484161,-117.0882341
"ENELRA PLACE, SAN DEIGO",32.8395254,-117.1816019
"LA JOLLA SHORES LANE, SAN DEIGO",32.8721063,-117.2510221
"EVERGREEN AVENUE, SAN DEIGO",32.5793941,-117.0992901
"DELOS DRIVE, SAN DEIGO",32.6846984,-117.0402216
"CONESTOGA WAY, SAN DEIGO",32.8043808,-117.0765438
"LARKSPUR STREET, SAN DEIGO",32.7499814,-117.2387602
"CULVER STREET, SAN DEIGO",32.8019795,-117.2258797
"ESCUELA STREET, SAN DEIGO",32.7138351,-117.0928439
"ROCK ISLAND ROAD, SAN DEIGO",32.681345,-117.06208
"HIERBA DRIVE, SAN DEIGO",33.0203786,-117.0709844
"AVE DE LAS VISTAS  , SAN DEIGO",32.5822973,-117.0092733
"WEST POINT LOMA AVENUE, SAN DEIGO",32.7320556,-117.2479171
"ICE SKATE PLACE, SAN DEIGO",32.9221205,-117.121697
"AGATE STREET, SAN DEIGO",32.8104257,-117.2558173
"LAKIMBA PALMER AVENUE, SAN DEIGO",32.713583,-117.086623
"GENESEE COVE, SAN DEIGO",32.8565937,-117.2048532
"BARKER WAY, SAN DEIGO",32.8117902,-117.0191356
"ACCOTT STREET, SAN DEIGO",32.7228555,-117.2291579
"MT BLACKBURN AVENUE, SAN DEIGO",32.8110694,-117.1871361
"CAM DEL SOL  , SAN DEIGO",32.8544025,-117.256901
"CRESCENT BAY DRIVE, SAN DEIGO",32.5663114,-117.0253325
"CAMEO COURT, SAN DEIGO",32.8088437,-117.1836124
"AZUL LUNA WAY, SAN DEIGO",32.9661236,-117.1715811
"CAMPANILE WAY, SAN DEIGO",32.7656064,-117.0740211
"REGENTS PARK RW ROW, SAN DEIGO",32.8726613,-117.2198291
"HELM STREET, SAN DEIGO",32.7174429,-117.0304885
"AVENIDA VILLAHA  , SAN DEIGO",33.0028126,-117.060771
"AMOROSO STREET, SAN DEIGO",32.8187153,-117.1649297
"OLIVE STREET, SAN DEIGO",32.7347035,-117.1264335
"ARVERNE STREET, SAN DEIGO",32.8159204,-117.1702733
"AVNDA SIVRITA  , SAN DEIGO",32.995975,-117.0777227
"ALTA LA JOLLA DRIVE, SAN DEIGO",32.8215479,-117.2467544
"BURKES HILL  , SAN DEIGO",-1,-1
"RADCLIFFE DRIVE, SAN DEIGO",32.85365970000001,-117.205698
"COLE WAY, SAN DEIGO",32.8409618,-117.2030861
"VIA MAR DE DELFINAS  , SAN DEIGO",32.9170219,-117.2250859
"CAMINO SANTA FE  , SAN DEIGO",32.8983087,-117.1706981
"KEARNY VILLA WAY, SAN DEIGO",32.8300219,-117.1401952
"BLOCH STREET, SAN DEIGO",32.8418866,-117.2325901
"LUZ ROAD, SAN DEIGO",33.0323451,-117.0845836
"SHARRON PLACE, SAN DEIGO",32.7539659,-117.0767134
"ASHLAND AVENUE, SAN DEIGO",32.7800662,-117.0565357
"BERMUDA AVENUE, SAN DEIGO",32.7355499,-117.2515437
"50TH  , SAN DEIGO",32.7549152,-117.0868589
"CAM AMERO  , SAN DEIGO",32.7721219,-117.1687239
"TOWLE COURT, SAN DEIGO",32.7470245,-117.0844805
"LARKIN PLACE, SAN DEIGO",32.7951547,-117.1340571
"FROST-MAR PLACE, SAN DEIGO",32.8769119,-117.1728079
"GROVE STREET, SAN DEIGO",32.7212856,-117.1283991
"CAMTO VECINOS  , SAN DEIGO",33.0128731,-117.0565434
"BIRMINGHAM WAY, SAN DEIGO",32.7965856,-117.1524184
"FARMINGDALE STREET, SAN DEIGO",32.9244944,-117.1026167
"SHOAL CREEK DRIVE, SAN DEIGO",32.9680794,-117.0805629
"ALVIN STREET, SAN DEIGO",32.7140352,-117.0725412
"GEON PLACE, SAN DEIGO",32.804478,-117.081711
"ROSEMONT STREET, SAN DEIGO",32.8275874,-117.2764581
"ARCTURUS WAY, SAN DEIGO",32.927124,-117.1337205
"SR-8  , SAN DEIGO",32.7193702,-117.1574523
"HORTENSIA STREET, SAN DEIGO",32.7528091,-117.1882728
"THEBES STREET, SAN DEIGO",32.9812936,-117.0943284
"PARADISE  , SAN DEIGO",32.775169,-117.238803
"CIVIC CENTER DRIVE, SAN DEIGO",33.1402331,-117.1597067
"GENESEE  , SAN DEIGO",32.8406331,-117.1970729
"RAIL COURT  , SAN DEIGO",32.5445997,-117.0287584
"PROGRESSIVE AVENUE, SAN DEIGO",32.5710348,-117.0034724
"ABER STREET, SAN DEIGO",32.829279,-117.2231065
"GOWDY AVENUE, SAN DEIGO",32.7946857,-117.1399883
"GRAVILLA STREET, SAN DEIGO",32.8290937,-117.2765737
"PEPSI DRIVE, SAN DEIGO",32.8194441,-117.1530889
"PLAZA BONITA CENTERW  , SAN DEIGO",32.656186,-117.065741
"CAMTO FRANCHE  , SAN DEIGO",32.8571462,-117.2265117
"ROCKWOOD ROAD, SAN DEIGO",33.1114924,-117.0113193
"BANTAM AVENUE, SAN DEIGO",32.7945771,-117.1221165
"CAPP  , SAN DEIGO",32.7202899,-117.1641235
"PARROT STREET, SAN DEIGO",32.7231746,-117.1139133
"52ND PLACE, SAN DEIGO",32.7499278,-117.0819897
"BRIARLEAF WAY, SAN DEIGO",32.9380975,-117.0717871
"HARTFORD COURT, SAN DEIGO",32.79186,-117.1989838
"WATERIDGE CIRCLE, SAN DEIGO",32.8986713,-117.2075543
"FRONTERA INTERNACION ROAD, SAN DEIGO",32.5514359,-116.9225718
"BARCELONA STREET, SAN DEIGO",32.7483631,-116.9818057
"PAN AMERICAN EAST ROAD, SAN DEIGO",32.7297659,-117.1510589
"ASCOT STREET, SAN DEIGO",32.7469735,-117.0705706
"COTTON STREET, SAN DEIGO",32.7150761,-117.0946592
"ESSENCE ROAD, SAN DEIGO",32.967471,-117.0678538
"JOSEPHINE STREET, SAN DEIGO",32.7694168,-117.191616
"TOMMY STREET, SAN DEIGO",32.80557210000001,-117.0271385
"LOWELL STREET, SAN DEIGO",32.7310796,-117.2299219
"DEERING STREET, SAN DEIGO",32.917425,-117.1459655
"FAMILY CIRCLE, SAN DEIGO",32.7993197,-117.1579324
"VIRGINIA WAY, SAN DEIGO",32.8447088,-117.2683637
"25TH  , SAN DEIGO",32.7124148,-117.1402597
"MIRAMAR MALL, SAN DEIGO",32.8790254,-117.1828508
"MAJESTIC DRIVE, SAN DEIGO",32.5764122,-117.0578364
"GARDE COURT, SAN DEIGO",32.9846009,-117.1646377
"ARISTA  , SAN DEIGO",32.753979,-117.191063
"SUNRISE STREET, SAN DEIGO",32.7140146,-117.1213744
"INGULF STREET, SAN DEIGO",32.7890746,-117.2018289
"TIERRA GRANDE STREET, SAN DEIGO",32.8950481,-117.1210495
"GOLDEN HAVEN DRIVE, SAN DEIGO",32.8708971,-117.2054653
"LOS ALTOS WAY, SAN DEIGO",32.8111941,-117.2405932
"SILKTREE TERRACE, SAN DEIGO",32.6916424,-117.1176239
"FINCH LANE, SAN DEIGO",32.7837782,-117.1578259
"ALTRIDGE STREET, SAN DEIGO",32.8063972,-117.1392112
"HEWLETT DRIVE, SAN DEIGO",32.7752362,-117.0812966
"GAINES  , SAN DEIGO",32.8452813,-117.1738757
"FERMI AVENUE, SAN DEIGO",32.8004981,-117.1264524
"SCRIPPS RANCH COURT, SAN DEIGO",32.9053565,-117.1102694
"MIRA LAGO WAY, SAN DEIGO",32.919033,-117.0856818
"SELTZER COURT, SAN DEIGO",32.798409,-117.1220429
"AMANTHA AVENUE, SAN DEIGO",32.9097386,-117.1508715
"ORTEN STREET, SAN DEIGO",32.78195950000001,-117.2000249
"DOVE CANYON ROAD, SAN DEIGO",33.0102096,-117.1114023
"COLLEGIO DRIVE, SAN DEIGO",32.8318165,-117.0827782
"OLAMAR WAY, SAN DEIGO",32.6866531,-117.0291594
"DUMAS STREET, SAN DEIGO",32.7412448,-117.2195563
"TAUSSIG COURT, SAN DEIGO",32.8072881,-117.1066105
"32ND  , SAN DEIGO",32.734557,-117.1250616
"SANDMARK AVENUE, SAN DEIGO",32.7891259,-117.1407493
"PAN AMERICA PLAZA  , SAN DEIGO",32.7275587,-117.1534032
"CALLE CASAS BONITAS  , SAN DEIGO",32.669041,-117.061981
"RITCHEY STREET, SAN DEIGO",32.7076433,-117.0532184
"MIRA SORRENTO PLACE, SAN DEIGO",32.8922538,-117.2065965
"COTTONTAIL LANE, SAN DEIGO",32.821554,-117.2599835
"HALO STREET, SAN DEIGO",32.5728198,-117.0970861
"EMBRY WAY, SAN DEIGO",32.900217,-117.1560095
"EAST INGERSOLL STREET, SAN DEIGO",32.787928,-117.1630731
"LIBRA DRIVE, SAN DEIGO",32.9206881,-117.1316998
"VISTA HILL AVENUE, SAN DEIGO",32.794913,-117.1559795
"WESTWOOD STREET, SAN DEIGO",32.6740134,-117.068782
"MANZANITA PLACE, SAN DEIGO",32.7398374,-117.101531
"TENNYSON STREET, SAN DEIGO",32.7376704,-117.2287564
"DEL DIABLO STREET, SAN DEIGO",32.9836667,-117.0901159
"DEL SOL COURT, SAN DEIGO",32.5741469,-117.041852
"LINDA VISTA  , SAN DEIGO",32.791569,-117.1676501
"ATWATER STREET, SAN DEIGO",32.5746598,-117.0996722
"EAST OCEAN AIR DRIVE, SAN DEIGO",32.9185238,-117.2166068
"WABASKA COURT, SAN DEIGO",32.7404477,-117.2321406
"BRITANNIA COURT, SAN DEIGO",32.5487306,-116.980461
"KAMLOOP AVENUE, SAN DEIGO",32.82331,-117.2157095
"HALL AVENUE, SAN DEIGO",32.5545787,-117.0435307
"CARMELINA DRIVE, SAN DEIGO",32.7631999,-117.1453402
"CAMTO CORRIENTE  , SAN DEIGO",32.9974143,-117.0737756
"CONNER WAY, SAN DEIGO",32.8176721,-117.2181362
"PIEDMONT DRIVE, SAN DEIGO",32.725664,-117.2509805
"GILMARTIN DRIVE, SAN DEIGO",32.6910569,-117.0541161
"SEA LILY  , SAN DEIGO",32.5736341,-117.027788
"PAN AMERICA PLAZA, SAN DEIGO",32.7275587,-117.1534032
"ALDER DRIVE, SAN DEIGO",32.76491060000001,-117.1040652
"CARRIE RIDGE WAY, SAN DEIGO",32.6879695,-117.031791
"HEATHER COURT, SAN DEIGO",33.0031118,-117.1056823
"MATINAL CIRCLE, SAN DEIGO",33.0343584,-117.0850498
"PRESTWICK DRIVE, SAN DEIGO",32.8580613,-117.2474915
"LA PALMA STREET, SAN DEIGO",32.792186,-117.2434045
"CHAUMONT DRIVE, SAN DEIGO",32.7243122,-117.0703457
"CARMEL GROVE  , SAN DEIGO",32.9422541,-117.2306842
"WATER RIDGE CIRCLE, SAN DEIGO",32.8986713,-117.2075543
"JACKIE DRIVE, SAN DEIGO",32.8109467,-117.0132331
"BABCOCK STREET, SAN DEIGO",33.0189921,-117.1320072
"BOYD AVENUE, SAN DEIGO",32.8082058,-117.1767114
"CAMINITO CUADRO  , SAN DEIGO",32.9614405,-117.1154894
"DIXIE DRIVE, SAN DEIGO",32.8027625,-117.2587258
"LOMA RIVIERA CIRCLE, SAN DEIGO",32.7553869,-117.2250717
"ACHESON STREET, SAN DEIGO",32.7729115,-117.1734934
"TOMPKINS STREET, SAN DEIGO",32.7069151,-117.1183383
"MURRAY PARK DRIVE, SAN DEIGO",32.7922669,-117.0482199
"BUSINESS CENTRAL COURT, SAN DEIGO",32.5693041,-117.0035279
"MOUND AVENUE, SAN DEIGO",32.7964647,-117.075138
"WERNER STREET, SAN DEIGO",32.8584299,-117.1897876
"BRAMSON PLACE, SAN DEIGO",32.7542914,-117.1229583
"DAVES WAY, SAN DEIGO",32.5801808,-117.0474131
"WALLINGFORD ROAD, SAN DEIGO",32.9117268,-117.1632849
"AVNDA DEL RIO  , SAN DEIGO",32.7678556,-117.1634543
"BEELER CANYON ROAD, SAN DEIGO",32.9279129,-117.036223
"MAISEL WAY, SAN DEIGO",32.7667811,-117.0787878
"MARTHA STREET, SAN DEIGO",32.834685,-117.2065901
"TIVERTON ROAD, SAN DEIGO",32.9595727,-117.235077
"DOLO STREET, SAN DEIGO",32.7068406,-117.0412661
"LISANN STREET, SAN DEIGO",32.8290845,-117.2254836
"CANERIDGE ROAD, SAN DEIGO",32.9363964,-117.0731074
"NEW CHATEL  , SAN DEIGO",32.5713114,-117.0892242
"DAUNTLESS STREET, SAN DEIGO",32.9270493,-117.1184535
"COTTOWNWOOD ROAD, SAN DEIGO",32.5564712,-117.0479889
"RAFFEE ROAD, SAN DEIGO",32.815311,-117.213997
"SPRINGSIDE ROAD, SAN DEIGO",32.9479597,-117.0794871
"HINSON PLACE, SAN DEIGO",32.7621546,-117.0789414
"MISSION  , SAN DEIGO",26.1751909,-98.30068709999999
"CAM TRANQUILO  , SAN DEIGO",33.4439216,-117.5977193
"SCRIPPS VISTA WAY, SAN DEIGO",32.9240781,-117.11341
"BRANDY CANYON ROAD, SAN DEIGO",33.0701948,-116.9751736
"PLOVER STREET, SAN DEIGO",32.7222797,-117.0527654
"NIMITZ STREET, SAN DEIGO",32.7504043,-117.2365378
"BOBHIRD DRIVE, SAN DEIGO",32.8109467,-117.0132331
"HIDALGO AVENUE, SAN DEIGO",32.8328103,-117.2200622
"CLINTON STREET, SAN DEIGO",32.7044322,-117.1136238
"CHERYL RIDGE COURT, SAN DEIGO",32.9280626,-117.1638697
"SR 56 EB   , SAN DEIGO",-1,-1
"CORPORATE COURT, SAN DEIGO",32.8088126,-117.1317394
"CALLE QUEBRADA  , SAN DEIGO",32.6772156,-117.0532995
"CAM DE LA SIESTA  , SAN DEIGO",32.943127,-117.049369
"NIELS BOHR COURT, SAN DEIGO",32.5575013,-116.9386512
"KALBAB COURT, SAN DEIGO",32.796529,-117.1975776
"ALBUQUERQUE STREET, SAN DEIGO",32.807312,-117.2183218
"WIMBERLY SQUARE, SAN DEIGO",32.9566465,-117.0951419
"BLAZEWOOD WAY, SAN DEIGO",33.0065964,-117.0869591
"LOCKFORD AVENUE, SAN DEIGO",32.6710899,-117.0475574
"OFTEDAHL WAY, SAN DEIGO",32.9614157,-117.1194046
"STONY RIDGE WAY, SAN DEIGO",32.9295805,-117.1044553
"BLUFFSIDE AVENUE, SAN DEIGO",32.8094839,-117.2199053
"MALAGA STREET, SAN DEIGO",32.7467953,-117.2116563
"CAITHNESS DRIVE, SAN DEIGO",32.5658617,-117.0552
"MADRESELVA WAY, SAN DEIGO",32.5623229,-117.0862869
"SOVEREIGN ROAD, SAN DEIGO",32.8065052,-117.1365132
"BYRD STREET, SAN DEIGO",32.5845171,-117.0518129
"OVERTON AVENUE, SAN DEIGO",32.7943007,-117.1286933
"WASP WAY, SAN DEIGO",32.7282889,-117.2224124
"JACKDAW STREET, SAN DEIGO",32.7495189,-117.1741207
"ELIZABETH STREET, SAN DEIGO",32.698675,-117.0991525
"DOOLITTLE AVENUE, SAN DEIGO",32.5861686,-117.0581219
"SOLEDAD PARK ROAD, SAN DEIGO",32.8395322,-117.2459209
"NAYLOR ROAD, SAN DEIGO",32.5466417,-117.0532449
"ANDREW STREET, SAN DEIGO",32.7440969,-117.1802998
"COBAN STREET, SAN DEIGO",32.6956,-117.0820079
"ADMIRAL BAKER ROAD, SAN DEIGO",32.7975955,-117.102248
"WADDELL CIRCLE, SAN DEIGO",32.819736,-117.1082642
"SORRENTO VALLE ROAD, SAN DEIGO",32.905218,-117.2269374
"VIA APRILIA  , SAN DEIGO",32.934328,-117.2521014
"HIGHLANDS PLACE, SAN DEIGO",32.9611833,-117.1903977
"COLLEGE GROVE  , SAN DEIGO",32.7389587,-117.0590886
"IVY LANE, SAN DEIGO",32.7421375,-117.1599381
"KIOWA DRIVE, SAN DEIGO",32.7780457,-117.0405272
"MISSION BAY PARKWAY, SAN DEIGO",32.8072495,-117.2181134
"TALMADGE PARK RW ROW, SAN DEIGO",32.7675019,-117.0961435
"SOLEDAD AVENUE, SAN DEIGO",32.8461956,-117.2617771
"GABLES STREET, SAN DEIGO",32.6757189,-117.0690947
"OSTROW STREET, SAN DEIGO",32.8143068,-117.1558777
"PLUM STREET, SAN DEIGO",32.734098,-117.2271181
"WOODMAN  , SAN DEIGO",32.6875112,-117.0458345
"IRONWOOD ROAD, SAN DEIGO",32.9040816,-117.0929895
"TORREY CIRCLE, SAN DEIGO",32.9183973,-117.2136788
"VIA TONGA COURT, SAN DEIGO",32.5790438,-117.0619109
"KELSO ROAD, SAN DEIGO",32.885854,-117.1345425
"SCRIPPS TRAIL, SAN DEIGO",32.9148583,-117.0788685
"TAMILYNN STREET, SAN DEIGO",32.8498925,-117.2033764
"CARLA WAY, SAN DEIGO",32.8095945,-117.2633724
"ARGYLE STREET, SAN DEIGO",32.8067495,-117.1608177
"WINDING RIDGE DRIVE, SAN DEIGO",32.9265023,-117.1053884
"CYPRESS CANYON ROAD, SAN DEIGO",32.9288189,-117.0783622
"COMPLEX STREET, SAN DEIGO",32.8330803,-117.1346807
"ENTREKEN AVENUE, SAN DEIGO",32.9597652,-117.1419994
" ARROYO ROSITA  , SAN DEIGO",32.9844834,-117.2244755
"WINSTON DRIVE, SAN DEIGO",32.7149851,-117.0821162
"OLD CLIFFS ROAD, SAN DEIGO",32.8005301,-117.0885448
"BAVARIAN WAY, SAN DEIGO",32.961122,-117.1402972
"CONCORD STREET, SAN DEIGO",32.724438,-117.240173
"BOREN STREET, SAN DEIGO",32.7468103,-117.0626635
"BORDELON STREET, SAN DEIGO",32.8124919,-117.1080194
"EASTBOURNE ROAD, SAN DEIGO",32.9819083,-117.0716818
"MADERA  , SAN DEIGO",36.9323404,-120.0457184
"JUPITER STREET, SAN DEIGO",32.755882,-117.220165
"WENDELL STREET, SAN DEIGO",32.7299667,-117.0939095
"SEAWARD AVENUE, SAN DEIGO",32.5570086,-117.041511
"NEW SALEM CIRCLE, SAN DEIGO",32.91661190000001,-117.1556256
"PACIFIC MESA COURT, SAN DEIGO",32.9021314,-117.1895234
"HATHAWAY STREET, SAN DEIGO",32.81919680000001,-117.1672115
"GALVESTON STREET, SAN DEIGO",32.7830381,-117.2011449
"INGRAHAM  , SAN DEIGO",32.7827648,-117.2366369
"HILLANDALE DRIVE, SAN DEIGO",32.813663,-117.0638551
"CAM PLAYA NORTE  , SAN DEIGO",32.8323037,-117.1578891
"BEATRICE STREET, SAN DEIGO",32.6720837,-117.0505877
"WALTER AVENUE, SAN DEIGO",32.7950101,-117.0847281
"DELEVAN DRIVE, SAN DEIGO",32.7186441,-117.1183915
"LIETA STREET, SAN DEIGO",32.7779186,-117.2056661
"EASTGATE COURT, SAN DEIGO",32.8812938,-117.1885139
"BOISE AVENUE, SAN DEIGO",32.8321341,-117.1910241
"CAMINITO SANTALUZ NO  , SAN DEIGO",32.9914078,-117.1494851
"CAMTO SANTALUZ SUR  , SAN DEIGO",32.9854311,-117.1556589
"BICYCLE PATH TWO  , SAN DEIGO",32.7601381,-117.2028068
"WAPLES STREET, SAN DEIGO",32.90262209999999,-117.1831383
"WESTPORT STREET, SAN DEIGO",32.679947,-117.064957
"CALLE JUELA  , SAN DEIGO",32.8498474,-117.2549825
"HOITT STREET, SAN DEIGO",32.7095257,-117.1329446
"ANELLA ROAD, SAN DEIGO",32.5471988,-117.0502181
"VALERIO TRAIL, SAN DEIGO",32.9636583,-117.2029878
"DONALDSON DRIVE, SAN DEIGO",32.8063225,-117.228764
"CAMTO EASTBLUFF  , SAN DEIGO",32.8584738,-117.2328539
"NORTH MTN VIEW DRIVE, SAN DEIGO",32.7696448,-117.1214433
"CONVERSE AVENUE, SAN DEIGO",32.788801,-117.1456103
"CAPISTRANO STREET, SAN DEIGO",32.7357296,-117.2296207
"HORTON AVENUE, SAN DEIGO",32.7382665,-117.1724148
"NARRAGANSETT COURT, SAN DEIGO",32.736888,-117.2372756
"PENNINGTON LANE, SAN DEIGO",32.6808292,-117.0406365
"LITTLER DRIVE, SAN DEIGO",32.7978297,-117.0389419
"MACAULAY STREET, SAN DEIGO",32.7316006,-117.2292596
"VALLEJO AVENUE, SAN DEIGO",32.8278424,-117.1985092
"ABBOTSHILL ROAD, SAN DEIGO",32.7852477,-117.1497527
"COWLES MOUNTAIN COURT, SAN DEIGO",32.8018972,-117.0267568
"CONDE STREET, SAN DEIGO",32.7515165,-117.1945803
"OF SCIENCE  , SAN DEIGO",32.9916219,-117.0810431
"SARANAC STREET, SAN DEIGO",32.7707775,-117.0492753
"COMSTOCK COURT, SAN DEIGO",32.7915165,-117.1748702
"MORAN WAY, SAN DEIGO",32.9472936,-117.1285714
"18TH STREET, SAN DEIGO",32.5799725,-117.0948752
"HIGHVIEW DRIVE, SAN DEIGO",32.7280378,-117.1241547
"MT MIGUEL DRIVE, SAN DEIGO",32.666205,-117.0596233
"EVANS PLACE, SAN DEIGO",32.7460422,-117.1599601
"SYCHAR ROAD, SAN DEIGO",32.7054725,-117.0456722
"EAST FALLS VIEW DRIVE, SAN DEIGO",32.773778,-117.0644353
"GRACELAND WAY, SAN DEIGO",32.9554946,-117.1189249
" MIRO CR  , SAN DEIGO",32.9192208,-117.1069048
"CORNERSTONE COURT, SAN DEIGO",32.8960523,-117.1908816
"EL CAMINO  , SAN DEIGO",32.7294854,-117.1709296
"FOXHOUND WAY, SAN DEIGO",32.9280953,-117.204046
"TORREY PINES LANE, SAN DEIGO",32.8501271,-117.252804
"ETA STREET, SAN DEIGO",32.6866625,-117.1059343
"TEAK STREET, SAN DEIGO",32.7003185,-117.1114399
"SEAWORLD DRIVE, SAN DEIGO",32.7611102,-117.2200109
"CALLE SERENA  , SAN DEIGO",32.6761503,-117.0589002
"JUANITA STREET, SAN DEIGO",32.740713,-117.0712537
"SWAN STREET, SAN DEIGO",32.7259786,-117.0594228
"ADIRONDACK RW ROW, SAN DEIGO",32.6801958,-117.0457981
"PERTH PLACE, SAN DEIGO",32.6802187,-117.0475301
"CAM DEL PROGRESSO  , SAN DEIGO",32.5616658,-117.0477171
"BOLIVAR STREET, SAN DEIGO",32.6778184,-117.0691532
"JAVIER STREET, SAN DEIGO",32.830828,-117.1772632
"VIA DE LA BANDOLA  , SAN DEIGO",32.5669702,-117.0485146
"BERYL  , SAN DEIGO",32.8065048,-117.2419501
"CUMANA TERRACE, SAN DEIGO",33.0345164,-117.0492136
"CANARY WAY, SAN DEIGO",32.7907921,-117.1535745
"SHASTA STREET, SAN DEIGO",32.7911478,-117.2353131
"CRABTREE STREET, SAN DEIGO",32.692253,-117.0558955
"DEL CERRO AVENUE, SAN DEIGO",32.7802245,-117.059934
"I 8 EB   , SAN DEIGO",33.0460358,-117.2935124
"LAKE ANDRITA AVENUE, SAN DEIGO",32.7955256,-117.0257236
"CUVIER STREET, SAN DEIGO",32.8399999,-117.2775016
"ULLMAN STREET, SAN DEIGO",32.724268,-117.239273
"DEL SUR RIDGE ROAD, SAN DEIGO",33.0191068,-117.1271263
"LODI STREET, SAN DEIGO",32.8435018,-117.2043789
"POGO RW ROW, SAN DEIGO",32.5753474,-116.9874793
"WINSTANLEY WAY, SAN DEIGO",32.9615928,-117.2122389
"RIVIERA SUMMIT ROAD, SAN DEIGO",32.5719856,-117.0351472
"PINE NEELDES DRIVE, SAN DEIGO",32.9477151,-117.2565985
"NORTHRUP DRIVE, SAN DEIGO",32.901031,-117.160568
"CALLE MEJILLONES  , SAN DEIGO",32.9161179,-117.2221935
"GARDENA AVENUE, SAN DEIGO",32.7767263,-117.1975345
"LAKE MURRAY BIKE PAT  , SAN DEIGO",32.7903697,-117.0420086
"CALLE SAUCILLO  , SAN DEIGO",32.9971749,-117.0686209
"LANDSDALE DRIVE, SAN DEIGO",32.9593609,-117.2157198
"BRIDGEVIEW DRIVE, SAN DEIGO",32.7212163,-117.1156013
"ENRICO FERMI PLACE, SAN DEIGO",32.558446,-116.9254648
"GREENWICH DRIVE, SAN DEIGO",32.8537868,-117.1840721
"KLEEFELD AV  AVENUE, SAN DEIGO",32.829957,-117.1988177
"MT ACLARE AVENUE, SAN DEIGO",32.8072324,-117.1790316
"COLDWELL LANE, SAN DEIGO",32.5808622,-117.0474306
"CAMINO DEL RIO  , SAN DEIGO",32.7713532,-117.1295335
"GROSSMONT COLLEGE  , SAN DEIGO",32.7447443,-116.9422628
"GREEN VALLEY COURT, SAN DEIGO",32.9249981,-117.0369933
"VIA DE LA AMISTAD  , SAN DEIGO",32.5528646,-116.9341496
"ROCK PLACE, SAN DEIGO",32.7519154,-117.0652001
"DALBY PLACE, SAN DEIGO",32.9264579,-117.1303199
"MANDAN WAY, SAN DEIGO",32.8324424,-117.2172106
"11TH  , SAN DEIGO",32.7152044,-117.1547046
"CAMINO ISLAY  , SAN DEIGO",32.8636579,-117.2149562
"WILTSIE WAY, SAN DEIGO",32.8217244,-117.1073758
"KIMSUE WAY, SAN DEIGO",32.5759435,-117.0474315
"ZASLAVSKY PLACE  , SAN DEIGO",33.0191297,-117.1231567
"BRIARCLIFF DRIVE, SAN DEIGO",32.9112489,-117.0914239
"FERN GLEN AVENUE, SAN DEIGO",32.8338487,-117.2776844
"GLIDDEN STREET, SAN DEIGO",32.7756232,-117.1745441
"VISTA LANE, SAN DEIGO",32.5618098,-117.0590409
"WODEN STREET, SAN DEIGO",32.6817502,-117.1162723
"OLIVEWOOD TERRACE, SAN DEIGO",32.7006346,-117.1161429
"MORTON WAY, SAN DEIGO",32.6710839,-117.0441556
"ORCHID WAY, SAN DEIGO",32.5805255,-117.065542
"GRIBBLE STREET, SAN DEIGO",32.7029416,-117.0342734
"BLUE CYPRESS DRIVE, SAN DEIGO",32.926557,-117.0776875
"SR-905  , SAN DEIGO",32.5643281,-117.079142
"DEER PARK WAY, SAN DEIGO",32.9574616,-117.1967496
"NOB AVENUE, SAN DEIGO",32.9484756,-117.2597182
"LIEDER DRIVE, SAN DEIGO",32.5735358,-117.0880669
"CAMTO GANDARA  , SAN DEIGO",32.854088,-117.233832
"ABUELA DRIVE, SAN DEIGO",32.8240602,-117.0969929
"SOUTHVIEW DRIVE, SAN DEIGO",32.810917,-117.2119121
"ALICE STREET, SAN DEIGO",32.7608554,-117.0717728
"MONTERERY PARK  , SAN DEIGO",32.5681226,-117.0701169
"VIA DOMINIQUE  , SAN DEIGO",32.8289323,-117.0819585
"COPPERWIND LANE, SAN DEIGO",32.9621185,-117.1619579
"CAM DEL RIO S  , SAN DEIGO",32.7713532,-117.1295335
"VOLTAIRE  , SAN DEIGO",32.7441429,-117.2350978
"LA JOLLA CORONA COURT, SAN DEIGO",32.8178872,-117.2647279
"CARMEL PARK DRIVE, SAN DEIGO",32.94221,-117.2286039
"OAKS DRIVE, SAN DEIGO",33.0332972,-117.0571898
"ESPLANADE COURT, SAN DEIGO",32.8700999,-117.2148748
"VIEWPOINT DRIVE, SAN DEIGO",32.6780615,-117.0524435
